"FID_","OBJECTID","stop_id","stop_name","stop_lat","stop_lon","zone_id","trip_id","arrival_ti","departure_","stop_id_1","stop_seque","X","Y","Stop_Seq","Join_","Join_1","ArrivTime","DeparTime"
,1,"DEPOT","Depot Square",42.448211,-71.228729,3.000000,"1",12/30/1899 0:00:00,12/30/1899 0:00:00,"DEPOT",1.000000,-71.228729,42.448211,0.000000,0.000000,"1 1","7:30:01 AM","7:30:01 AM"
,2,"MASS_PAUL3","Massachusetts Avenue and Paul Revere Road",42.447151,-71.254259,1.000000,"4",12/30/1899 0:00:00,12/30/1899 0:00:00,"MASS_PAUL3",26.000000,-71.254259,42.447151,0.000000,0.000000,"4 26","7:09:10 AM","7:09:10 AM"
,3,"MASS_GRANT","Massachusetts Avenue @ Grant Street",42.446751,-71.225699,1.000000,"1",12/30/1899 0:00:00,12/30/1899 0:00:00,"MASS_GRANT",2.000000,-71.225699,42.446751,0.000000,0.000000,"1 2","7:31:01 AM","7:31:01 AM"
,4,"GRANT_SHERMAN","Grant Street @ Sherman Street",42.448161,-71.224669,1.000000,"5B1",12/30/1899 0:00:00,12/30/1899 0:00:00,"GRANT_SHERMAN",3.000000,-71.224669,42.448161,0.000000,0.000000,"5B1 3","8:31:02 AM","8:31:02 AM"
,5,"GRANT_SHERIDAN","Grant Street @ Sheridan Street",42.449441,-71.222569,1.000000,"5B1",12/30/1899 0:00:00,12/30/1899 0:00:00,"GRANT_SHERIDAN",4.000000,-71.222569,42.449441,0.000000,0.000000,"5B1 4","8:32:03 AM","8:32:03 AM"
,6,"GRANT_HAYES","Grant Street @ Hayes Lane",42.450654,-71.220459,1.000000,"5B1",12/30/1899 0:00:00,12/30/1899 0:00:00,"GRANT_HAYES",5.000000,-71.220459,42.450654,0.000000,0.000000,"5B1 5","8:32:04 AM","8:32:04 AM"
,7,"GRANT_SADDLE","Grant Street @ Saddle Club Road",42.453061,-71.218184,1.000000,"5B1",12/30/1899 0:00:00,12/30/1899 0:00:00,"GRANT_SADDLE",6.000000,-71.218184,42.453061,0.000000,0.000000,"5B1 6","8:33:05 AM","8:33:05 AM"
,8,"GRANT_TODD","Grant Street @ Todd Road",42.456037,-71.217369,1.000000,"5B1",12/30/1899 0:00:00,12/30/1899 0:00:00,"GRANT_TODD",7.000000,-71.217369,42.456037,0.000000,0.000000,"5B1 7","8:33:06 AM","8:33:06 AM"
,9,"GRANT_COLONY","Grant Street opposite Colony Road",42.457398,-71.216768,1.000000,"5B1",12/30/1899 0:00:00,12/30/1899 0:00:00,"GRANT_COLONY",8.000000,-71.216768,42.457398,0.000000,0.000000,"5B1 8","8:33:07 AM","8:33:07 AM"
,10,"GRANT_EAST","Grant Street @ East Street",42.460058,-71.214580,1.000000,"5B1",12/30/1899 0:00:00,12/30/1899 0:00:00,"GRANT_EAST",9.000000,-71.214580,42.460058,0.000000,0.000000,"5B1 9","8:34:08 AM","8:34:08 AM"
,11,"EAST_RIDGE","East Street @ Ridge Road",42.459077,-71.210460,1.000000,"5B1",12/30/1899 0:00:00,12/30/1899 0:00:00,"EAST_RIDGE",10.000000,-71.210460,42.459077,0.000000,0.000000,"5B1 10","8:34:09 AM","8:34:09 AM"
,12,"EAST_BURROUGHS","East Street opposite Burroughs Road",42.458602,-71.208271,1.000000,"5B1",12/30/1899 0:00:00,12/30/1899 0:00:00,"EAST_BURROUGHS",11.000000,-71.208271,42.458602,0.000000,0.000000,"5B1 11","8:34:10 AM","8:34:10 AM"
,13,"EAST_LOWELL","East Street @ Lowell Street",42.458412,-71.204623,1.000000,"5B1",12/30/1899 0:00:00,12/30/1899 0:00:00,"EAST_LOWELL",12.000000,-71.204623,42.458412,0.000000,0.000000,"5B1 12","8:34:11 AM","8:34:11 AM"
,14,"LOWELL_THOREAU","Lowell Street opposite Thoreau Road",42.462812,-71.206855,1.000000,"5B1",12/30/1899 0:00:00,12/30/1899 0:00:00,"LOWELL_THOREAU",13.000000,-71.206855,42.462812,0.000000,0.000000,"5B1 13","8:35:12 AM","8:35:12 AM"
,15,"LOWELL_NORTH","Lowell Street @ North Street",42.465535,-71.208185,1.000000,"5B1",12/30/1899 0:00:00,12/30/1899 0:00:00,"LOWELL_NORTH",14.000000,-71.208185,42.465535,0.000000,0.000000,"5B1 14","8:36:13 AM","8:36:13 AM"
,16,"NORTH_SORELLE","North @ Sorrelle",42.467316,-71.206079,1.000000,"5B1",12/30/1899 0:00:00,12/30/1899 0:00:00,"NORTH_SORELLE",15.000000,-71.206079,42.467316,0.000000,0.000000,"5B1 15","8:36:14 AM","8:36:14 AM"
,17,"MULLER_MARKET_BASKET","Muller Road @ Market Basket",42.468707,-71.206045,1.000000,"5B1",12/30/1899 0:00:00,12/30/1899 0:00:00,"MULLER_MARKET_BASKET",16.000000,-71.206045,42.468707,0.000000,0.000000,"5B1 16","8:36:15 AM","8:36:15 AM"
,18,"OLD_CONCORD_H_MART","Old Concord Road @ Mart",42.473034,-71.209175,2.000000,"5B1",12/30/1899 0:00:00,12/30/1899 0:00:00,"OLD_CONCORD_H_MART",18.000000,-71.209175,42.473034,0.000000,0.000000,"5B1 18","8:37:17 AM","8:37:17 AM"
,19,"WHEELER_OLD_CONCORD","Wheeler Road @ Old Concord",42.476027,-71.211265,2.000000,"5B1",12/30/1899 0:00:00,12/30/1899 0:00:00,"WHEELER_OLD_CONCORD",19.000000,-71.211265,42.476027,0.000000,0.000000,"5B1 19","8:40:18 AM","8:40:18 AM"
,20,"MARKET_BASKET","Market Basket in Middlesex Commons",42.470722,-71.209197,2.000000,"5B1",12/30/1899 0:00:00,12/30/1899 0:00:00,"MARKET_BASKET",17.000000,-71.209197,42.470722,0.000000,0.000000,"5B1 17","8:37:16 AM","8:37:16 AM"
,21,"BURLINGTON_SEAFOOD","Burlington Mall-Legal Seafood",42.485714,-71.212288,2.000000,"5B1",12/30/1899 0:00:00,12/30/1899 0:00:00,"BURLINGTON_SEAFOOD",21.000000,-71.212288,42.485714,0.000000,0.000000,"5B1 21","8:41:20 AM","8:41:20 AM"
,22,"MIDDELSEX_ABBOTT","Middlesex Turnpike @ Abbott",42.473442,-71.212585,2.000000,"5B1",12/30/1899 0:00:00,12/30/1899 0:00:00,"MIDDELSEX_ABBOTT",23.000000,-71.212585,42.473442,0.000000,0.000000,"5B1 23","8:46:22 AM","8:46:22 AM"
,23,"ADAMS_CYPRESS","Adams Street @ Cypress Street",42.470821,-71.212774,2.000000,"5B1",12/30/1899 0:00:00,12/30/1899 0:00:00,"ADAMS_CYPRESS",25.000000,-71.212774,42.470821,0.000000,0.000000,"5B1 25","8:47:24 AM","8:47:24 AM"
,24,"ADAMS_MYRNA","Adams Street @ Myrna Road",42.466801,-71.213550,1.000000,"5B1",12/30/1899 0:00:00,12/30/1899 0:00:00,"ADAMS_MYRNA",26.000000,-71.213550,42.466801,0.000000,0.000000,"5B1 26","8:48:25 AM","8:48:25 AM"
,25,"ADAMS_NORTH","Adams Street @ North Street",42.465978,-71.213893,1.000000,"5B1",12/30/1899 0:00:00,12/30/1899 0:00:00,"ADAMS_NORTH",27.000000,-71.213893,42.465978,0.000000,0.000000,"5B1 27","8:48:26 AM","8:48:26 AM"
,26,"ADAMS_WESTWOOD","Adams Street @ Westwood Street",42.465186,-71.214449,1.000000,"5B1",12/30/1899 0:00:00,12/30/1899 0:00:00,"ADAMS_WESTWOOD",28.000000,-71.214449,42.465186,0.000000,0.000000,"5B1 28","8:48:27 AM","8:48:27 AM"
,27,"ADAMS_MILLBROOK","Adams Street @ Millbrook Road",42.463840,-71.216741,1.000000,"5B1",12/30/1899 0:00:00,12/30/1899 0:00:00,"ADAMS_MILLBROOK",29.000000,-71.216741,42.463840,0.000000,0.000000,"5B1 29","8:48:28 AM","8:48:28 AM"
,28,"ADAMS_EMERSON","Adams Street opposite Emerson Road",42.463446,-71.218013,1.000000,"5B1",12/30/1899 0:00:00,12/30/1899 0:00:00,"ADAMS_EMERSON",30.000000,-71.218013,42.463446,0.000000,0.000000,"5B1 30","8:49:29 AM","8:49:29 AM"
,29,"ADAMS_EAST","Adams Street opposite East Street",42.460596,-71.221446,1.000000,"5B1",12/30/1899 0:00:00,12/30/1899 0:00:00,"ADAMS_EAST",31.000000,-71.221446,42.460596,0.000000,0.000000,"5B1 31","8:49:30 AM","8:49:30 AM"
,30,"ADAMS_PORTER","Adams Street opposite Porter Lane",42.459488,-71.223077,1.000000,"5B1",12/30/1899 0:00:00,12/30/1899 0:00:00,"ADAMS_PORTER",32.000000,-71.223077,42.459488,0.000000,0.000000,"5B1 32","8:49:31 AM","8:49:31 AM"
,31,"ADAMS_WOODLAND","Adams Street opposite Woodland Road",42.458665,-71.224064,1.000000,"5B1",12/30/1899 0:00:00,12/30/1899 0:00:00,"ADAMS_WOODLAND",33.000000,-71.224064,42.458665,0.000000,0.000000,"5B1 33","8:49:32 AM","8:49:32 AM"
,32,"ADAMS_MERIAM","Adams Street opposite Meriam Street",42.458063,-71.225072,1.000000,"5B1",12/30/1899 0:00:00,12/30/1899 0:00:00,"ADAMS_MERIAM",34.000000,-71.225072,42.458063,0.000000,0.000000,"5B1 34","8:50:33 AM","8:50:33 AM"
,33,"ADAMS_HANCOCK","Adams Street @ Hancock Street",42.456544,-71.227519,1.000000,"5B1",12/30/1899 0:00:00,12/30/1899 0:00:00,"ADAMS_HANCOCK",35.000000,-71.227519,42.456544,0.000000,0.000000,"5B1 35","8:50:34 AM","8:50:34 AM"
,34,"HANCOCK_HAYES2","Hancock Street @ Hayes Avenue",42.455040,-71.227626,1.000000,"6",12/30/1899 0:00:00,12/30/1899 0:00:00,"HANCOCK_HAYES2",5.000000,-71.227626,42.455040,0.000000,0.000000,"6 5","8:02:04 AM","8:02:04 AM"
,35,"HANCOCK_BRIGHAM2","Hancock Street opposite Brigham Road",42.454311,-71.227905,1.000000,"6",12/30/1899 0:00:00,12/30/1899 0:00:00,"HANCOCK_BRIGHAM2",4.000000,-71.227905,42.454311,0.000000,0.000000,"6 4","8:02:03 AM","8:02:03 AM"
,36,"HANCOCK_EDGEWOOD2","Hancock Street @ Edgewood Road",42.452744,-71.228656,1.000000,"6",12/30/1899 0:00:00,12/30/1899 0:00:00,"HANCOCK_EDGEWOOD2",3.000000,-71.228656,42.452744,0.000000,0.000000,"6 3","8:01:02 AM","8:01:02 AM"
,37,"HANCOCK_HAYES","Hancock Street opposite Hayes Avenue",42.455182,-71.227883,1.000000,"5B1",12/30/1899 0:00:00,12/30/1899 0:00:00,"HANCOCK_HAYES",36.000000,-71.227883,42.455182,0.000000,0.000000,"5B1 36","8:51:36 AM","8:51:36 AM"
,38,"HANCOCK_BRIGHAM","Hancock Street @ Brigham Road",42.454280,-71.228162,1.000000,"5B1",12/30/1899 0:00:00,12/30/1899 0:00:00,"HANCOCK_BRIGHAM",37.000000,-71.228162,42.454280,0.000000,0.000000,"5B1 37","8:52:37 AM","8:52:37 AM"
,39,"HANCOCK_EDGEWOOD","Hancock Street opposite Edgewood Road",42.452855,-71.228935,1.000000,"6",12/30/1899 0:00:00,12/30/1899 0:00:00,"HANCOCK_EDGEWOOD",55.000000,-71.228935,42.452855,0.000000,0.000000,"6 55","8:23:53 AM","8:23:53 AM"
,40,"MBTA","Massachusetts Avenue-MBTA Stop",42.448358,-71.229536,1.000000,"4",12/30/1899 0:00:00,12/30/1899 0:00:00,"MBTA",70.000000,-71.229536,42.448358,0.000000,0.000000,"4 70","7:29:54 AM","7:29:54 AM"
,41,"HANCOCK_BEDFORD","Hancock Street @ Bedford Street",42.450369,-71.230201,1.000000,"4",12/30/1899 0:00:00,12/30/1899 0:00:00,"HANCOCK_BEDFORD",2.000000,-71.230201,42.450369,0.000000,0.000000,"4 2","7:00:56 AM","7:00:56 AM"
,42,"HANCOCK_DIEHL","Hancock Street @ Diehl Road",42.457747,-71.228484,1.000000,"6",12/30/1899 0:00:00,12/30/1899 0:00:00,"HANCOCK_DIEHL",7.000000,-71.228484,42.457747,0.000000,0.000000,"6 7","8:02:06 AM","8:02:06 AM"
,43,"HANCOCK_COOLIDGE","Hancock Street @ Coolidge Avenue",42.459710,-71.230029,1.000000,"6",12/30/1899 0:00:00,12/30/1899 0:00:00,"HANCOCK_COOLIDGE",8.000000,-71.230029,42.459710,0.000000,0.000000,"6 8","8:02:07 AM","8:02:07 AM"
,44,"HANCOCK_BURLINGTON","Hancock Street @ Burlington Street",42.463319,-71.232733,1.000000,"6",12/30/1899 0:00:00,12/30/1899 0:00:00,"HANCOCK_BURLINGTON",9.000000,-71.232733,42.463319,0.000000,0.000000,"6 9","8:03:08 AM","8:03:08 AM"
,45,"BURLINGTON_REDCOAT","Burlington Street @ Redcoat Lane",42.466200,-71.232132,1.000000,"6",12/30/1899 0:00:00,12/30/1899 0:00:00,"BURLINGTON_REDCOAT",10.000000,-71.232132,42.466200,0.000000,0.000000,"6 10","8:03:09 AM","8:03:09 AM"
,46,"BURLINGTON_GROVE","Burlington Street @ Grove Street",42.468827,-71.231960,1.000000,"6",12/30/1899 0:00:00,12/30/1899 0:00:00,"BURLINGTON_GROVE",11.000000,-71.231960,42.468827,0.000000,0.000000,"6 11","8:04:10 AM","8:04:10 AM"
,47,"GROVE_TIDD","Grove Street @ Tidd Circle",42.471803,-71.235436,1.000000,"6",12/30/1899 0:00:00,12/30/1899 0:00:00,"GROVE_TIDD",12.000000,-71.235436,42.471803,0.000000,0.000000,"6 12","8:05:11 AM","8:05:11 AM"
,48,"GROVE_95","Grove Street @ I-95",42.472943,-71.237968,1.000000,"6",12/30/1899 0:00:00,12/30/1899 0:00:00,"GROVE_95",13.000000,-71.237968,42.472943,0.000000,0.000000,"6 13","8:05:12 AM","8:05:12 AM"
,49,"GROVE_ROYAL","Grove Street @ Royal Circle",42.474968,-71.238998,1.000000,"6",12/30/1899 0:00:00,12/30/1899 0:00:00,"GROVE_ROYAL",38.000000,-71.238998,42.474968,0.000000,0.000000,"6 38","8:17:37 AM","8:17:37 AM"
,50,"GROVE_ELDRED","Grove Street opposite Eldred Street",42.477342,-71.240543,1.000000,"6",12/30/1899 0:00:00,12/30/1899 0:00:00,"GROVE_ELDRED",37.000000,-71.240543,42.477342,0.000000,0.000000,"6 37","8:16:36 AM","8:16:36 AM"
,51,"GROVE_DEWEY","Grove Street @ Dewey Road",42.481394,-71.239685,1.000000,"6",12/30/1899 0:00:00,12/30/1899 0:00:00,"GROVE_DEWEY",36.000000,-71.239685,42.481394,0.000000,0.000000,"6 36","8:16:35 AM","8:16:35 AM"
,52,"GROVE_GOULD","Grove Street @ Gould Road",42.483356,-71.239556,1.000000,"6",12/30/1899 0:00:00,12/30/1899 0:00:00,"GROVE_GOULD",35.000000,-71.239556,42.483356,0.000000,0.000000,"6 35","8:15:34 AM","8:15:34 AM"
,53,"GROVE_MCKEEVER","Grove Street opposite McKeever Drive",42.486014,-71.240479,1.000000,"6",12/30/1899 0:00:00,12/30/1899 0:00:00,"GROVE_MCKEEVER",34.000000,-71.240479,42.486014,0.000000,0.000000,"6 34","8:15:33 AM","8:15:33 AM"
,54,"GROVE_VOLUNTEER","Grove Street @ Volunteer Way",42.487059,-71.241852,1.000000,"6",12/30/1899 0:00:00,12/30/1899 0:00:00,"GROVE_VOLUNTEER",33.000000,-71.241852,42.487059,0.000000,0.000000,"6 33","8:14:32 AM","8:14:32 AM"
,55,"GROVE_VOLUNTEER2","Grove Street @ Volunteer Way",42.486932,-71.241595,1.000000,"6",12/30/1899 0:00:00,12/30/1899 0:00:00,"GROVE_VOLUNTEER2",24.000000,-71.241595,42.486932,0.000000,0.000000,"6 24","8:11:23 AM","8:11:23 AM"
,56,"GROVE_MCKEEVER2","Grove Street @ McKeever Drive",42.485904,-71.240500,1.000000,"6",12/30/1899 0:00:00,12/30/1899 0:00:00,"GROVE_MCKEEVER2",23.000000,-71.240500,42.485904,0.000000,0.000000,"6 23","8:10:22 AM","8:10:22 AM"
,57,"GROVE_GOULD2","Grove Street opposite Gould Road",42.483261,-71.239535,1.000000,"6",12/30/1899 0:00:00,12/30/1899 0:00:00,"GROVE_GOULD2",22.000000,-71.239535,42.483261,0.000000,0.000000,"6 22","8:09:21 AM","8:09:21 AM"
,58,"GROVE_TIDD2","Grove Street opposite Tidd Circle",42.471692,-71.235866,1.000000,"6",12/30/1899 0:00:00,12/30/1899 0:00:00,"GROVE_TIDD2",40.000000,-71.235866,42.471692,0.000000,0.000000,"6 40","8:17:38 AM","8:17:38 AM"
,59,"BURLINGTON_GROVE2","Burlington Street @ Grove Street",42.468796,-71.233012,1.000000,"6",12/30/1899 0:00:00,12/30/1899 0:00:00,"BURLINGTON_GROVE2",41.000000,-71.233012,42.468796,0.000000,0.000000,"6 41","8:17:39 AM","8:17:39 AM"
,60,"HANCOCK_COOLIDGE2","Hancock Street opposite Coolidge Avenue",42.459599,-71.229943,1.000000,"6",12/30/1899 0:00:00,12/30/1899 0:00:00,"HANCOCK_COOLIDGE2",50.000000,-71.229943,42.459599,0.000000,0.000000,"6 50","8:22:48 AM","8:22:48 AM"
,61,"HANCOCK_DIEHL2","Hancock Street opposite Diehl Road",42.457588,-71.228570,1.000000,"6",12/30/1899 0:00:00,12/30/1899 0:00:00,"HANCOCK_DIEHL2",51.000000,-71.228570,42.457588,0.000000,0.000000,"6 51","8:22:49 AM","8:22:49 AM"
,62,"VOLUNTEER_HERITAGE","Volunteer Way opposite Heritage Drive",42.486125,-71.243633,1.000000,"6",12/30/1899 0:00:00,12/30/1899 0:00:00,"VOLUNTEER_HERITAGE",32.000000,-71.243633,42.486125,0.000000,0.000000,"6 32","8:14:31 AM","8:14:31 AM"
,63,"VOLUNTEER_RANGEWAY","Volunteer Way @ Rangeway",42.484377,-71.245779,1.000000,"6",12/30/1899 0:00:00,12/30/1899 0:00:00,"VOLUNTEER_RANGEWAY",31.000000,-71.245779,42.484377,0.000000,0.000000,"6 31","8:14:30 AM","8:14:30 AM"
,64,"RANGEWAY_SKYVIEW","Rangeway @ Skyview Road",42.483941,-71.245393,1.000000,"6",12/30/1899 0:00:00,12/30/1899 0:00:00,"RANGEWAY_SKYVIEW",30.000000,-71.245393,42.483941,0.000000,0.000000,"6 30","8:12:29 AM","8:12:29 AM"
,65,"SKYVIEW_WRIGHT","Skyview Road opposite Wright Street",42.483617,-71.247013,1.000000,"6",12/30/1899 0:00:00,12/30/1899 0:00:00,"SKYVIEW_WRIGHT",29.000000,-71.247013,42.483617,0.000000,0.000000,"6 29","8:13:28 AM","8:13:28 AM"
,66,"SKYVIEW_JOHN","Skyview Road @ John Benson Road",42.483427,-71.248654,1.000000,"6",12/30/1899 0:00:00,12/30/1899 0:00:00,"SKYVIEW_JOHN",28.000000,-71.248654,42.483427,0.000000,0.000000,"6 28","8:12:27 AM","8:12:27 AM"
,67,"JOHN_CARRIAGE","John Benson Road @ Carriage Drive",42.485919,-71.248654,1.000000,"6",12/30/1899 0:00:00,12/30/1899 0:00:00,"JOHN_CARRIAGE",27.000000,-71.248654,42.485919,0.000000,0.000000,"6 27","8:12:26 AM","8:12:26 AM"
,68,"CARRIAGE_COACH","Carriage Drive @ Coach Road",42.486584,-71.246616,1.000000,"6",12/30/1899 0:00:00,12/30/1899 0:00:00,"CARRIAGE_COACH",26.000000,-71.246616,42.486584,0.000000,0.000000,"6 26","8:11:25 AM","8:11:25 AM"
,69,"CARRIAGE_GROVE","Carriage Drive @ Grove Street",42.488119,-71.243504,1.000000,"6",12/30/1899 0:00:00,12/30/1899 0:00:00,"CARRIAGE_GROVE",25.000000,-71.243504,42.488119,0.000000,0.000000,"6 25","8:11:24 AM","8:11:24 AM"
,70,"GOULD_DEWEY","Gould Road @ Dewey Road",42.484028,-71.237014,1.000000,"6",12/30/1899 0:00:00,12/30/1899 0:00:00,"GOULD_DEWEY",21.000000,-71.237014,42.484028,0.000000,0.000000,"6 21","8:09:20 AM","8:09:20 AM"
,71,"GOULD_TURNING","Gould Road @ Turning Mill Road",42.485223,-71.236499,1.000000,"6",12/30/1899 0:00:00,12/30/1899 0:00:00,"GOULD_TURNING",20.000000,-71.236499,42.485223,0.000000,0.000000,"6 20","8:08:19 AM","8:08:19 AM"
,72,"TURNING_GRIMES","Turning Mill Road opposite Grimes Road",42.481607,-71.233194,1.000000,"6",12/30/1899 0:00:00,12/30/1899 0:00:00,"TURNING_GRIMES",19.000000,-71.233194,42.481607,0.000000,0.000000,"6 19","8:08:18 AM","8:08:18 AM"
,73,"TURNING_MOUNTAIN","Turning Mill Road @ Mountain Road",42.480571,-71.232840,1.000000,"6",12/30/1899 0:00:00,12/30/1899 0:00:00,"TURNING_MOUNTAIN",18.000000,-71.232840,42.480571,0.000000,0.000000,"6 18","8:08:17 AM","8:08:17 AM"
,74,"TURNING_DEMAR","Turning Mill Road @ Demar Road",42.480112,-71.231574,1.000000,"6",12/30/1899 0:00:00,12/30/1899 0:00:00,"TURNING_DEMAR",17.000000,-71.231574,42.480112,0.000000,0.000000,"6 17","8:07:16 AM","8:07:16 AM"
,75,"TURNING_PARTRIDGE","Turning Mill Road opposite Partridge Road",42.479321,-71.230523,1.000000,"6",12/30/1899 0:00:00,12/30/1899 0:00:00,"TURNING_PARTRIDGE",16.000000,-71.230523,42.479321,0.000000,0.000000,"6 16","8:06:15 AM","8:06:15 AM"
,76,"TURNING_ROBINSON","Turning Mill Road @ Robinson Road",42.474327,-71.234664,1.000000,"6",12/30/1899 0:00:00,12/30/1899 0:00:00,"TURNING_ROBINSON",15.000000,-71.234664,42.474327,0.000000,0.000000,"6 15","8:05:14 AM","8:05:14 AM"
,77,"ROBINSON_GROVE","Robinson Road @ Grove Street",42.473671,-71.238376,1.000000,"6",12/30/1899 0:00:00,12/30/1899 0:00:00,"ROBINSON_GROVE",14.000000,-71.238376,42.473671,0.000000,0.000000,"6 14","8:05:13 AM","8:05:13 AM"
,78,"BURLINGTON_SIMONDS","Burlington Street @ Simonds Road",42.467925,-71.233055,1.000000,"6",12/30/1899 0:00:00,12/30/1899 0:00:00,"BURLINGTON_SIMONDS",42.000000,-71.233055,42.467925,0.000000,0.000000,"6 42","8:18:40 AM","8:18:40 AM"
,79,"SIMONDS_PRESTON","Simonds Road opposite Preston Road",42.467989,-71.233934,1.000000,"6",12/30/1899 0:00:00,12/30/1899 0:00:00,"SIMONDS_PRESTON",43.000000,-71.233934,42.467989,0.000000,0.000000,"6 43","8:18:41 AM","8:18:41 AM"
,80,"SIMONDS_BLAKE","Simonds Road @ Blake Road",42.468970,-71.236037,1.000000,"6",12/30/1899 0:00:00,12/30/1899 0:00:00,"SIMONDS_BLAKE",44.000000,-71.236037,42.468970,0.000000,0.000000,"6 44","8:18:42 AM","8:18:42 AM"
,81,"SIMONDS_BERTWELL","Simonds Road @ Bertwell Road",42.467957,-71.238827,1.000000,"6",12/30/1899 0:00:00,12/30/1899 0:00:00,"SIMONDS_BERTWELL",45.000000,-71.238827,42.467957,0.000000,0.000000,"6 45","8:19:43 AM","8:19:43 AM"
,82,"BERTWELL_FULLER","Bertwell Road @ Fuller Road",42.465788,-71.237604,1.000000,"6",12/30/1899 0:00:00,12/30/1899 0:00:00,"BERTWELL_FULLER",46.000000,-71.237604,42.465788,0.000000,0.000000,"6 46","8:19:44 AM","8:19:44 AM"
,83,"BERTWELL_NHANCOCK","Bertwell Road @ North Hancock Street",42.463240,-71.237711,1.000000,"6",12/30/1899 0:00:00,12/30/1899 0:00:00,"BERTWELL_NHANCOCK",47.000000,-71.237711,42.463240,0.000000,0.000000,"6 47","8:20:45 AM","8:20:45 AM"
,84,"NHANCOCK_BRAEMORE","North Hancock Street @ Braemore Terrace",42.463192,-71.235565,1.000000,"6",12/30/1899 0:00:00,12/30/1899 0:00:00,"NHANCOCK_BRAEMORE",48.000000,-71.235565,42.463192,0.000000,0.000000,"6 48","8:20:46 AM","8:20:46 AM"
,85,"NHANCOCK_HAMILTON","North Hancock Street @ Hamilton Road",42.462931,-71.232829,1.000000,"6",12/30/1899 0:00:00,12/30/1899 0:00:00,"NHANCOCK_HAMILTON",49.000000,-71.232829,42.462931,0.000000,0.000000,"6 49","8:21:47 AM","8:21:47 AM"
,86,"MASS_WINTHROP","Massachusetts Avenue @ Winthrop Road",42.445872,-71.222648,1.000000,"1",12/30/1899 0:00:00,12/30/1899 0:00:00,"MASS_WINTHROP",3.000000,-71.222648,42.445872,0.000000,0.000000,"1 3","7:31:02 AM","7:31:02 AM"
,87,"MASS_SLOCUM","Massachusetts Avenue @ Slocum Road",42.444764,-71.220974,1.000000,"1",12/30/1899 0:00:00,12/30/1899 0:00:00,"MASS_SLOCUM",4.000000,-71.220974,42.444764,0.000000,0.000000,"1 4","7:32:03 AM","7:32:03 AM"
,88,"MASS_BLOOMFIELD","Massachusetts Avenue @ Bloomfield Street",42.443561,-71.219365,1.000000,"1",12/30/1899 0:00:00,12/30/1899 0:00:00,"MASS_BLOOMFIELD",5.000000,-71.219365,42.443561,0.000000,0.000000,"1 5","7:32:04 AM","7:32:04 AM"
,89,"MASS_PERCY","Massachusetts Avenue @ Percy Road",42.441771,-71.216833,1.000000,"1",12/30/1899 0:00:00,12/30/1899 0:00:00,"MASS_PERCY",6.000000,-71.216833,42.441771,0.000000,0.000000,"1 6","7:33:05 AM","7:33:05 AM"
,90,"MASS_PELHAM","Massachusetts Avenue @ Pelham Road",42.440014,-71.214107,1.000000,"1",12/30/1899 0:00:00,12/30/1899 0:00:00,"MASS_PELHAM",7.000000,-71.214107,42.440014,0.000000,0.000000,"1 7","7:33:06 AM","7:33:06 AM"
,91,"MASS_MARRETT","Massachusetts Avenue @ Marrett Road",42.436276,-71.212734,1.000000,"1",12/30/1899 0:00:00,12/30/1899 0:00:00,"MASS_MARRETT",8.000000,-71.212734,42.436276,0.000000,0.000000,"1 8","7:33:07 AM","7:33:07 AM"
,92,"MASS_PLAINFIELD","Massachusetts Avenue @ Plainfield Street",42.434598,-71.210288,1.000000,"1",12/30/1899 0:00:00,12/30/1899 0:00:00,"MASS_PLAINFIELD",9.000000,-71.210288,42.434598,0.000000,0.000000,"1 9","7:33:08 AM","7:33:08 AM"
,93,"MASS_LOCUST","Massachusetts Avenue @ Locust Avenue",42.433806,-71.209430,1.000000,"1",12/30/1899 0:00:00,12/30/1899 0:00:00,"MASS_LOCUST",10.000000,-71.209430,42.433806,0.000000,0.000000,"1 10","7:33:09 AM","7:33:09 AM"
,94,"MASS_JOSEPH","Massachusetts Avenue opposite Joseph Road",42.433125,-71.208829,1.000000,"1",12/30/1899 0:00:00,12/30/1899 0:00:00,"MASS_JOSEPH",11.000000,-71.208829,42.433125,0.000000,0.000000,"1 11","7:34:10 AM","7:34:10 AM"
,95,"MASS_INDEPENDENCE","Massachusetts Avenue @ Independence Avenue",42.431494,-71.208035,1.000000,"1",12/30/1899 0:00:00,12/30/1899 0:00:00,"MASS_INDEPENDENCE",12.000000,-71.208035,42.431494,0.000000,0.000000,"1 12","7:34:11 AM","7:34:11 AM"
,96,"MASS_GIBSON","Massachusetts Avenue @ Gibson Road",42.430575,-71.207820,1.000000,"1",12/30/1899 0:00:00,12/30/1899 0:00:00,"MASS_GIBSON",13.000000,-71.207820,42.430575,0.000000,0.000000,"1 13","7:34:12 AM","7:34:12 AM"
,97,"MASS_PLEASANT","Massachusetts Avenue @ Pleasant Street",42.429213,-71.207069,1.000000,"1",12/30/1899 0:00:00,12/30/1899 0:00:00,"MASS_PLEASANT",14.000000,-71.207069,42.429213,0.000000,0.000000,"1 14","7:34:13 AM","7:34:13 AM"
,98,"PLEASANT_BRIDLE","Pleasant Street @ Bridle Path",42.428247,-71.207069,1.000000,"1",12/30/1899 0:00:00,12/30/1899 0:00:00,"PLEASANT_BRIDLE",15.000000,-71.207069,42.428247,0.000000,0.000000,"1 15","7:35:14 AM","7:35:14 AM"
,99,"LUONGO","Luongo's Farm Street @ Pleasant Street opposite Mason Street",42.423162,-71.208571,1.000000,"1",12/30/1899 0:00:00,12/30/1899 0:00:00,"LUONGO",17.000000,-71.208571,42.423162,0.000000,0.000000,"1 17","7:35:16 AM","7:35:16 AM"
,100,"WATERTOWN_GREEN","Watertown Street @ Green Lane",42.419915,-71.208700,1.000000,"1",12/30/1899 0:00:00,12/30/1899 0:00:00,"WATERTOWN_GREEN",19.000000,-71.208700,42.419915,0.000000,0.000000,"1 19","7:36:18 AM","7:36:18 AM"
,101,"PEACOCK_WATERTOWN","Peacock Farm Road @ Watertown Street",42.418870,-71.206790,1.000000,"1",12/30/1899 0:00:00,12/30/1899 0:00:00,"PEACOCK_WATERTOWN",21.000000,-71.206790,42.418870,0.000000,0.000000,"1 21","7:37:20 AM","7:37:20 AM"
,102,"PEACOCK_MASON","Peacock Farm Road opposite Mason Road",42.420707,-71.205760,1.000000,"1",12/30/1899 0:00:00,12/30/1899 0:00:00,"PEACOCK_MASON",22.000000,-71.205760,42.420707,0.000000,0.000000,"1 22","7:37:21 AM","7:37:21 AM"
,103,"PEACOCK_HORSE","Peacock Farm Road opposite Trotting Horse Lane",42.420913,-71.204623,1.000000,"1",12/30/1899 0:00:00,12/30/1899 0:00:00,"PEACOCK_HORSE",23.000000,-71.204623,42.420913,0.000000,0.000000,"1 23","7:38:22 AM","7:38:22 AM"
,104,"PEACOCK_COMPTON","Peacock Farm Road opposite Compton Road",42.419773,-71.201190,1.000000,"1",12/30/1899 0:00:00,12/30/1899 0:00:00,"PEACOCK_COMPTON",24.000000,-71.201190,42.419773,0.000000,0.000000,"1 24","7:38:23 AM","7:38:23 AM"
,105,"PEACOCK_BUTLER","Peacock Farm Road opposite Butler Avenue",42.421895,-71.200868,1.000000,"1",12/30/1899 0:00:00,12/30/1899 0:00:00,"PEACOCK_BUTLER",25.000000,-71.200868,42.421895,0.000000,0.000000,"1 25","7:38:24 AM","7:38:24 AM"
,106,"BAKER_AMES","Baker Avenue opposite Ames Avenue",42.422465,-71.200450,1.000000,"1",12/30/1899 0:00:00,12/30/1899 0:00:00,"BAKER_AMES",26.000000,-71.200450,42.422465,0.000000,0.000000,"1 26","7:38:25 AM","7:38:25 AM"
,107,"BAKER_BANKS","Baker Avenue @ Banks Avenue",42.422956,-71.200063,1.000000,"1",12/30/1899 0:00:00,12/30/1899 0:00:00,"BAKER_BANKS",27.000000,-71.200063,42.422956,0.000000,0.000000,"1 27","7:38:26 AM","7:38:26 AM"
,108,"BAKER_TUCKER","Baker Avenue @ Tucker Avenue",42.423487,-71.199677,1.000000,"1",12/30/1899 0:00:00,12/30/1899 0:00:00,"BAKER_TUCKER",28.000000,-71.199677,42.423487,0.000000,0.000000,"1 28","7:39:27 AM","7:39:27 AM"
,109,"BAKER_Oak","Baker Avenue opposite Oak Street",42.424034,-71.199237,1.000000,"1",12/30/1899 0:00:00,12/30/1899 0:00:00,"BAKER_Oak",29.000000,-71.199237,42.424034,0.000000,0.000000,"1 29","7:39:28 AM","7:39:28 AM"
,110,"BAKER_TAFT","Baker Avenue @ Taft Avenue",42.424533,-71.198894,1.000000,"1",12/30/1899 0:00:00,12/30/1899 0:00:00,"BAKER_TAFT",30.000000,-71.198894,42.424533,0.000000,0.000000,"1 30","7:39:29 AM","7:39:29 AM"
,111,"TAFT_CHASE","Taft Avenue @ Chase Avenue",42.424311,-71.198304,1.000000,"1",12/30/1899 0:00:00,12/30/1899 0:00:00,"TAFT_CHASE",31.000000,-71.198304,42.424311,0.000000,0.000000,"1 31","7:39:30 AM","7:39:30 AM"
,112,"TAFT_TARBELL","Taft Avenue @ Tarbell Avenue",42.424057,-71.197703,1.000000,"1",12/30/1899 0:00:00,12/30/1899 0:00:00,"TAFT_TARBELL",32.000000,-71.197703,42.424057,0.000000,0.000000,"1 32","7:39:31 AM","7:39:31 AM"
,113,"TAFT_SUTHERLAND","Taft Avenue @ Sutherland Road",42.423788,-71.196995,1.000000,"1",12/30/1899 0:00:00,12/30/1899 0:00:00,"TAFT_SUTHERLAND",33.000000,-71.196995,42.423788,0.000000,0.000000,"1 33","7:40:32 AM","7:40:32 AM"
,114,"TAFT_DANIELS","Taft Avenue @ Daniels Street",42.423519,-71.195665,1.000000,"1",12/30/1899 0:00:00,12/30/1899 0:00:00,"TAFT_DANIELS",34.000000,-71.195665,42.423519,0.000000,0.000000,"1 34","7:40:33 AM","7:40:33 AM"
,115,"TAFT_STEVENS","Taft Avenue opposite Stevens Road",42.424065,-71.194806,1.000000,"1",12/30/1899 0:00:00,12/30/1899 0:00:00,"TAFT_STEVENS",35.000000,-71.194806,42.424065,0.000000,0.000000,"1 35","7:40:34 AM","7:40:34 AM"
,116,"TAFT_CHERRY","Taft Avenue opposite Cherry Street",42.424849,-71.194517,1.000000,"1",12/30/1899 0:00:00,12/30/1899 0:00:00,"TAFT_CHERRY",36.000000,-71.194517,42.424849,0.000000,0.000000,"1 36","7:40:35 AM","7:40:35 AM"
,117,"MASS_BOW","Massachusetts Avenue @ Bow Street",42.425713,-71.194635,1.000000,"1",12/30/1899 0:00:00,12/30/1899 0:00:00,"MASS_BOW",37.000000,-71.194635,42.425713,0.000000,0.000000,"1 37","7:41:36 AM","7:41:36 AM"
,118,"BOW_CLIFFE","Bow Street opposite Cliffe Avenue",42.426544,-71.194420,1.000000,"1",12/30/1899 0:00:00,12/30/1899 0:00:00,"BOW_CLIFFE",38.000000,-71.194420,42.426544,0.000000,0.000000,"1 38","7:41:37 AM","7:41:37 AM"
,119,"BOW_LEHIGH","Bow Street opposite Leighton Avenue",42.426940,-71.194066,1.000000,"1",12/30/1899 0:00:00,12/30/1899 0:00:00,"BOW_LEHIGH",39.000000,-71.194066,42.426940,0.000000,0.000000,"1 39","7:41:38 AM","7:41:38 AM"
,120,"BOW_THERESA","Bow Street opposite Theresa Avenue",42.427526,-71.193755,1.000000,"1",12/30/1899 0:00:00,12/30/1899 0:00:00,"BOW_THERESA",40.000000,-71.193755,42.427526,0.000000,0.000000,"1 40","7:42:39 AM","7:42:39 AM"
,121,"BOW_DREW","Bow Street oppostie Drew Avenue",42.428381,-71.193304,1.000000,"1",12/30/1899 0:00:00,12/30/1899 0:00:00,"BOW_DREW",41.000000,-71.193304,42.428381,0.000000,0.000000,"1 41","7:42:40 AM","7:42:40 AM"
,122,"BOW_CUMMINGS","Bow Street opposite Cummings Avenue",42.428936,-71.192982,1.000000,"1",12/30/1899 0:00:00,12/30/1899 0:00:00,"BOW_CUMMINGS",42.000000,-71.192982,42.428936,0.000000,0.000000,"1 42","7:42:41 AM","7:42:41 AM"
,123,"BOW_MELROSE","Bow Street opposite Melrose Avenue",42.429387,-71.192596,1.000000,"1",12/30/1899 0:00:00,12/30/1899 0:00:00,"BOW_MELROSE",43.000000,-71.192596,42.429387,0.000000,0.000000,"1 43","7:42:42 AM","7:42:42 AM"
,124,"BOW_WINN","Bow Street @ Winn Street",42.430820,-71.192446,1.000000,"1",12/30/1899 0:00:00,12/30/1899 0:00:00,"BOW_WINN",44.000000,-71.192446,42.430820,0.000000,0.000000,"1 44","7:43:43 AM","7:43:43 AM"
,125,"BOW_RAWSON","Bow Street @ Rawson Avenue",42.431739,-71.192435,1.000000,"1",12/30/1899 0:00:00,12/30/1899 0:00:00,"BOW_RAWSON",45.000000,-71.192435,42.431739,0.000000,0.000000,"1 45","7:43:44 AM","7:43:44 AM"
,126,"RAWSON_ALBEMARLE","Rawson Avenue @ Albermarle Avenue",42.431984,-71.193218,1.000000,"1",12/30/1899 0:00:00,12/30/1899 0:00:00,"RAWSON_ALBEMARLE",46.000000,-71.193218,42.431984,0.000000,0.000000,"1 46","7:43:45 AM","7:43:45 AM"
,127,"HILLCREST_CLIFFE","Hillcrest Avenue opposite Cliffe Avenue",42.431913,-71.193991,1.000000,"1",12/30/1899 0:00:00,12/30/1899 0:00:00,"HILLCREST_CLIFFE",47.000000,-71.193991,42.431913,0.000000,0.000000,"1 47","7:43:46 AM","7:43:46 AM"
,128,"HILLCREST_CIRCLE","Hillcrest Avenue @ Circle Road",42.430377,-71.195235,1.000000,"1",12/30/1899 0:00:00,12/30/1899 0:00:00,"HILLCREST_CIRCLE",48.000000,-71.195235,42.430377,0.000000,0.000000,"1 48","7:44:47 AM","7:44:47 AM"
,129,"HILLCREST_WINSHIP","Hillcrest Avenue opposite Winship Road",42.429569,-71.195193,1.000000,"1",12/30/1899 0:00:00,12/30/1899 0:00:00,"HILLCREST_WINSHIP",49.000000,-71.195193,42.429569,0.000000,0.000000,"1 49","7:44:48 AM","7:44:48 AM"
,130,"HILLCRES_FOTTLER","Hillcrest Avenue @ Fottler Avenue",42.428524,-71.195804,1.000000,"1",12/30/1899 0:00:00,12/30/1899 0:00:00,"HILLCRES_FOTTLER",50.000000,-71.195804,42.428524,0.000000,0.000000,"1 50","7:44:49 AM","7:44:49 AM"
,131,"FOTTLER_BRANDON","Fottler Avenue @ Brandon Street",42.428065,-71.198261,1.000000,"1",12/30/1899 0:00:00,12/30/1899 0:00:00,"FOTTLER_BRANDON",51.000000,-71.198261,42.428065,0.000000,0.000000,"1 51","7:44:50 AM","7:44:50 AM"
,132,"MASS_HILLSIDE","Massachusetts Avenue opposite Hillside Avenue",42.427851,-71.202402,1.000000,"1",12/30/1899 0:00:00,12/30/1899 0:00:00,"MASS_HILLSIDE",53.000000,-71.202402,42.427851,0.000000,0.000000,"1 53","7:45:52 AM","7:45:52 AM"
,133,"MASS_ELLEN","Massachusetts Avenue @ Ellen Dana Court",42.428421,-71.206039,1.000000,"1",12/30/1899 0:00:00,12/30/1899 0:00:00,"MASS_ELLEN",55.000000,-71.206039,42.428421,0.000000,0.000000,"1 55","7:45:54 AM","7:45:54 AM"
,134,"MASS_WINTHROP2","Massachusetts Avenue opposite Winthrop Road",42.445999,-71.222369,1.000000,"1",12/30/1899 0:00:00,12/30/1899 0:00:00,"MASS_WINTHROP2",67.000000,-71.222369,42.445999,0.000000,0.000000,"1 67","7:50:07 AM","7:50:07 AM"
,135,"MASS_SLOCUM2","Massachusetts Avenue opposite Slocum Road",42.444819,-71.220834,1.000000,"1",12/30/1899 0:00:00,12/30/1899 0:00:00,"MASS_SLOCUM2",66.000000,-71.220834,42.444819,0.000000,0.000000,"1 66","7:49:06 AM","7:49:06 AM"
,136,"MASS_BLOOMFIELD2","Massachusetts Avenue opposite Bloomfield Street",42.443521,-71.219129,1.000000,"1",12/30/1899 0:00:00,12/30/1899 0:00:00,"MASS_BLOOMFIELD2",65.000000,-71.219129,42.443521,0.000000,0.000000,"1 65","7:49:05 AM","7:49:05 AM"
,137,"MASS_PERCY2","Massachusetts Avenue opposite Percy Road",42.441882,-71.216693,1.000000,"1",12/30/1899 0:00:00,12/30/1899 0:00:00,"MASS_PERCY2",64.000000,-71.216693,42.441882,0.000000,0.000000,"1 64","7:49:04 AM","7:49:04 AM"
,138,"MASS_PELHAM2","Massachusetts Avenue opposite Pelham Road",42.439974,-71.213775,1.000000,"3",12/30/1899 0:00:00,12/30/1899 0:00:00,"MASS_PELHAM2",39.000000,-71.213775,42.439974,0.000000,0.000000,"3 39","7:46:54 AM","7:46:54 AM"
,139,"MASS_MARRETT2","Massachusetts Avenue @ Marrett Road",42.436047,-71.212294,1.000000,"1",12/30/1899 0:00:00,12/30/1899 0:00:00,"MASS_MARRETT2",62.000000,-71.212294,42.436047,0.000000,0.000000,"1 62","7:48:02 AM","7:48:02 AM"
,140,"MASS_LOCUST2","Massachusetts Avenue opposite Locust Avenue",42.433877,-71.209161,1.000000,"1",12/30/1899 0:00:00,12/30/1899 0:00:00,"MASS_LOCUST2",60.000000,-71.209161,42.433877,0.000000,0.000000,"1 60","7:47:59 AM","7:47:59 AM"
,141,"MASS_JOSEPH2","Massachusetts Avenue @ Joseph Road",42.433141,-71.208850,1.000000,"1",12/30/1899 0:00:00,12/30/1899 0:00:00,"MASS_JOSEPH2",59.000000,-71.208850,42.433141,0.000000,0.000000,"1 59","7:46:58 AM","7:46:58 AM"
,142,"MASS_INDEPENDENCE2","Massachusetts Avenue opposite Independence Avenue",42.431438,-71.207863,1.000000,"1",12/30/1899 0:00:00,12/30/1899 0:00:00,"MASS_INDEPENDENCE2",58.000000,-71.207863,42.431438,0.000000,0.000000,"1 58","7:46:57 AM","7:46:57 AM"
,143,"MASS_GIBSON2","Massachusetts Avenue opposite Gibson Road",42.430543,-71.207617,1.000000,"1",12/30/1899 0:00:00,12/30/1899 0:00:00,"MASS_GIBSON2",57.000000,-71.207617,42.430543,0.000000,0.000000,"1 57","7:46:56 AM","7:46:56 AM"
,144,"TOWN","Town Hall",42.446490,-71.224101,1.000000,"1",12/30/1899 0:00:00,12/30/1899 0:00:00,"TOWN",68.000000,-71.224101,42.446490,0.000000,0.000000,"1 68","7:51:08 AM","7:51:08 AM"
,145,"WOBURN_HAYES","Woburn Street opposite Hayes Avenue",42.446292,-71.220716,1.000000,"3",12/30/1899 0:00:00,12/30/1899 0:00:00,"WOBURN_HAYES",4.000000,-71.220716,42.446292,0.000000,0.000000,"3 4","7:32:46 AM","7:32:46 AM"
,146,"WOBURN_COTTAGE","Woburn Street @ Cottage Street",42.446490,-71.218302,1.000000,"3",12/30/1899 0:00:00,12/30/1899 0:00:00,"WOBURN_COTTAGE",5.000000,-71.218302,42.446490,0.000000,0.000000,"3 5","7:33:46 AM","7:33:46 AM"
,147,"WOBURN_MANLEY","Woburn Street opposite Manley Court",42.446672,-71.216554,1.000000,"3",12/30/1899 0:00:00,12/30/1899 0:00:00,"WOBURN_MANLEY",6.000000,-71.216554,42.446672,0.000000,0.000000,"3 6","7:33:46 AM","7:33:46 AM"
,148,"WOBURN_HOWARD","Woburn Street @ Howard Munroe Place",42.446862,-71.213979,1.000000,"3",12/30/1899 0:00:00,12/30/1899 0:00:00,"WOBURN_HOWARD",7.000000,-71.213979,42.446862,0.000000,0.000000,"3 7","7:33:46 AM","7:33:46 AM"
,149,"WOBURN_UTICA","Woburn Street opposite Utica Street",42.446941,-71.212573,1.000000,"3",12/30/1899 0:00:00,12/30/1899 0:00:00,"WOBURN_UTICA",8.000000,-71.212573,42.446941,0.000000,0.000000,"3 8","7:33:47 AM","7:33:47 AM"
,150,"WOBURN_WEBB","Woburn Street opposite Webb Street",42.447464,-71.207295,1.000000,"3",12/30/1899 0:00:00,12/30/1899 0:00:00,"WOBURN_WEBB",9.000000,-71.207295,42.447464,0.000000,0.000000,"3 9","7:33:47 AM","7:33:47 AM"
,151,"WOBURN_SOLOMON","Woburn Street @ Solomon Pierce Road",42.447891,-71.204902,1.000000,"3",12/30/1899 0:00:00,12/30/1899 0:00:00,"WOBURN_SOLOMON",10.000000,-71.204902,42.447891,0.000000,0.000000,"3 10","7:34:47 AM","7:34:47 AM"
,152,"WOBURN_LEONARD","Woburn Street opposite Leonard Road",42.448065,-71.204119,1.000000,"3",12/30/1899 0:00:00,12/30/1899 0:00:00,"WOBURN_LEONARD",11.000000,-71.204119,42.448065,0.000000,0.000000,"3 11","7:34:47 AM","7:34:47 AM"
,153,"WOBURN_RUMFORD","Woburn Street opposite Rumford Road",42.448414,-71.202488,1.000000,"3",12/30/1899 0:00:00,12/30/1899 0:00:00,"WOBURN_RUMFORD",12.000000,-71.202488,42.448414,0.000000,0.000000,"3 12","7:34:48 AM","7:34:48 AM"
,154,"WOBURN_LOWELL","Woburn Street @ Lowell Street",42.449150,-71.199237,1.000000,"3",12/30/1899 0:00:00,12/30/1899 0:00:00,"WOBURN_LOWELL",14.000000,-71.199237,42.449150,0.000000,0.000000,"3 14","7:34:48 AM","7:34:48 AM"
,155,"LOWELL_PEARTREE","Lowell Street opposite Peartree Drive",42.447171,-71.197810,1.000000,"3",12/30/1899 0:00:00,12/30/1899 0:00:00,"LOWELL_PEARTREE",15.000000,-71.197810,42.447171,0.000000,0.000000,"3 15","7:35:48 AM","7:35:48 AM"
,156,"LOWELL_HARRINGTON","Lowell Street @ Harrington School",42.445722,-71.197220,1.000000,"3",12/30/1899 0:00:00,12/30/1899 0:00:00,"LOWELL_HARRINGTON",16.000000,-71.197220,42.445722,0.000000,0.000000,"3 16","7:35:49 AM","7:35:49 AM"
,157,"LOWELL_WINCHESTER","Lowell Street @ Winchester Drive",42.444558,-71.196555,1.000000,"3",12/30/1899 0:00:00,12/30/1899 0:00:00,"LOWELL_WINCHESTER",17.000000,-71.196555,42.444558,0.000000,0.000000,"3 17","7:35:49 AM","7:35:49 AM"
,158,"WINCHESTER_TYLER","Winchester Drive @ Tyler Road",42.444804,-71.195557,1.000000,"3",12/30/1899 0:00:00,12/30/1899 0:00:00,"WINCHESTER_TYLER",18.000000,-71.195557,42.444804,0.000000,0.000000,"3 18","7:35:49 AM","7:35:49 AM"
,159,"WINCHESTER_FISKE","Winchester Drive @ Fiske Road",42.445611,-71.191545,1.000000,"3",12/30/1899 0:00:00,12/30/1899 0:00:00,"WINCHESTER_FISKE",19.000000,-71.191545,42.445611,0.000000,0.000000,"3 19","7:36:49 AM","7:36:49 AM"
,160,"WINCHESTER_TYLER2","Winchester Drive opposite Tyler Road",42.444812,-71.187017,1.000000,"3",12/30/1899 0:00:00,12/30/1899 0:00:00,"WINCHESTER_TYLER2",20.000000,-71.187017,42.444812,0.000000,0.000000,"3 20","7:37:50 AM","7:37:50 AM"
,161,"WINCHESTER_RUSSELL","Winchester Drive @ Russell Road",42.444257,-71.184421,1.000000,"3",12/30/1899 0:00:00,12/30/1899 0:00:00,"WINCHESTER_RUSSELL",21.000000,-71.184421,42.444257,0.000000,0.000000,"3 21","7:37:50 AM","7:37:50 AM"
,162,"RUSELL_WHIPPLE","Russell Road @ Whipple Road",42.441732,-71.186212,1.000000,"3",12/30/1899 0:00:00,12/30/1899 0:00:00,"RUSELL_WHIPPLE",22.000000,-71.186212,42.441732,0.000000,0.000000,"3 22","7:38:50 AM","7:38:50 AM"
,163,"WHIPPLE_FISKE","Whipple Road @ Fiske Road",42.441312,-71.187790,1.000000,"3",12/30/1899 0:00:00,12/30/1899 0:00:00,"WHIPPLE_FISKE",23.000000,-71.187790,42.441312,0.000000,0.000000,"3 23","7:38:50 AM","7:38:50 AM"
,164,"WHIPPLE_LOCKE","Whipple Road @ Locke Lane",42.440164,-71.188948,1.000000,"3",12/30/1899 0:00:00,12/30/1899 0:00:00,"WHIPPLE_LOCKE",24.000000,-71.188948,42.440164,0.000000,0.000000,"3 24","7:39:51 AM","7:39:51 AM"
,165,"WHIPPLE_WHEELER","Whipple Road @ Wheeler Road",42.439222,-71.190086,1.000000,"3",12/30/1899 0:00:00,12/30/1899 0:00:00,"WHIPPLE_WHEELER",25.000000,-71.190086,42.439222,0.000000,0.000000,"3 25","7:39:51 AM","7:39:51 AM"
,166,"WHIPPLE_LOWELL","Whipple Road @ Lowell Street",42.438462,-71.191019,1.000000,"3",12/30/1899 0:00:00,12/30/1899 0:00:00,"WHIPPLE_LOWELL",26.000000,-71.191019,42.438462,0.000000,0.000000,"3 26","7:39:51 AM","7:39:51 AM"
,167,"LOWELL_SANDERSON","Lowell Street opposite Sanderson Road",42.440148,-71.192371,1.000000,"3",12/30/1899 0:00:00,12/30/1899 0:00:00,"LOWELL_SANDERSON",27.000000,-71.192371,42.440148,0.000000,0.000000,"3 27","7:40:51 AM","7:40:51 AM"
,168,"LOWELL_BRYANT","Lowell Street @ Bryant Road",42.442626,-71.194238,1.000000,"3",12/30/1899 0:00:00,12/30/1899 0:00:00,"LOWELL_BRYANT",28.000000,-71.194238,42.442626,0.000000,0.000000,"3 28","7:40:51 AM","7:40:51 AM"
,169,"BRYANT_SANDERSON","Bryant Road @ Sanderson Road",42.442262,-71.195461,1.000000,"3",12/30/1899 0:00:00,12/30/1899 0:00:00,"BRYANT_SANDERSON",29.000000,-71.195461,42.442262,0.000000,0.000000,"3 29","7:41:52 AM","7:41:52 AM"
,170,"BRYANT_SANDERSON2","Bryant Road @ Sanderson Road",42.440402,-71.197210,1.000000,"3",12/30/1899 0:00:00,12/30/1899 0:00:00,"BRYANT_SANDERSON2",30.000000,-71.197210,42.440402,0.000000,0.000000,"3 30","7:42:52 AM","7:42:52 AM"
,171,"BRYANT_VILLAGE","Bryant Road @ Village Circle",42.438818,-71.198379,1.000000,"3",12/30/1899 0:00:00,12/30/1899 0:00:00,"BRYANT_VILLAGE",31.000000,-71.198379,42.438818,0.000000,0.000000,"3 31","7:42:52 AM","7:42:52 AM"
,172,"BRYANT_EMERSON","Bryant Road @ Emerson Gardens Road",42.437955,-71.198894,1.000000,"3",12/30/1899 0:00:00,12/30/1899 0:00:00,"BRYANT_EMERSON",32.000000,-71.198894,42.437955,0.000000,0.000000,"3 32","7:42:52 AM","7:42:52 AM"
,173,"EMERSON_MAPLE","Emerson Gardens Road @ Maple Street",42.439808,-71.203196,1.000000,"3",12/30/1899 0:00:00,12/30/1899 0:00:00,"EMERSON_MAPLE",33.000000,-71.203196,42.439808,0.000000,0.000000,"3 33","7:43:53 AM","7:43:53 AM"
,174,"MAPLE_SOLOMON","Maple Street @ Solomon Pierce Road",42.439024,-71.204591,1.000000,"3",12/30/1899 0:00:00,12/30/1899 0:00:00,"MAPLE_SOLOMON",34.000000,-71.204591,42.439024,0.000000,0.000000,"3 34","7:43:53 AM","7:43:53 AM"
,175,"MAPLE_CARNEGIE","Maple Street @ Carnegie Place",42.438192,-71.205718,1.000000,"3",12/30/1899 0:00:00,12/30/1899 0:00:00,"MAPLE_CARNEGIE",35.000000,-71.205718,42.438192,0.000000,0.000000,"3 35","7:43:53 AM","7:43:53 AM"
,176,"MAPLE_INGLESIDE","Maple Street @ Ingleside Road",42.436260,-71.208217,1.000000,"3",12/30/1899 0:00:00,12/30/1899 0:00:00,"MAPLE_INGLESIDE",36.000000,-71.208217,42.436260,0.000000,0.000000,"3 36","7:44:53 AM","7:44:53 AM"
,177,"MAPLE_MASS","Maple Street @ Massachusetts Avenue",42.435279,-71.210932,1.000000,"1",12/30/1899 0:00:00,12/30/1899 0:00:00,"MAPLE_MASS",61.000000,-71.210932,42.435279,0.000000,0.000000,"1 61","7:47:01 AM","7:47:01 AM"
,178,"WOBURN_COUNTRYSIDE","Woburn Street @ Countryside Village",42.448905,-71.200675,1.000000,"3",12/30/1899 0:00:00,12/30/1899 0:00:00,"WOBURN_COUNTRYSIDE",13.000000,-71.200675,42.448905,0.000000,0.000000,"3 13","7:34:48 AM","7:34:48 AM"
,179,"COUNTRYSIDE","Countryside Village",42.447551,-71.199988,1.000000,"3c",12/30/1899 0:00:00,12/30/1899 0:00:00,"COUNTRYSIDE",14.000000,-71.199988,42.447551,15.000000,0.000000,"3c 14","9:34:13 AM","9:34:13 AM"
,180,"BEDFORD_CAMELLIA","Bedford Street @ Camellia Place",42.453045,-71.232497,1.000000,"4",12/30/1899 0:00:00,12/30/1899 0:00:00,"BEDFORD_CAMELLIA",3.000000,-71.232497,42.453045,0.000000,0.000000,"4 3","7:01:56 AM","7:01:56 AM"
,181,"BEDFORD_LOIS","Bedford Street @ Lois Lane",42.454359,-71.233398,1.000000,"4",12/30/1899 0:00:00,12/30/1899 0:00:00,"BEDFORD_LOIS",4.000000,-71.233398,42.454359,0.000000,0.000000,"4 4","7:02:57 AM","7:02:57 AM"
,182,"BEDFORD_LARCHMONT","Bedford Street @ Larchmont Lane",42.458032,-71.236960,1.000000,"4",12/30/1899 0:00:00,12/30/1899 0:00:00,"BEDFORD_LARCHMONT",7.000000,-71.236960,42.458032,0.000000,0.000000,"4 7","7:03:57 AM","7:03:57 AM"
,183,"SUNNY_SUNNY","Sunny Knoll Avenue @ Sunny Knoll Terrace",42.460850,-71.239932,1.000000,"4",12/30/1899 0:00:00,12/30/1899 0:00:00,"SUNNY_SUNNY",10.000000,-71.239932,42.460850,0.000000,0.000000,"4 10","7:03:58 AM","7:03:58 AM"
,184,"REED_SUNNY","Reed Street @ Sunny Knoll Avenue",42.460383,-71.241262,1.000000,"4",12/30/1899 0:00:00,12/30/1899 0:00:00,"REED_SUNNY",11.000000,-71.241262,42.460383,0.000000,0.000000,"4 11","7:04:58 AM","7:04:58 AM"
,185,"REED_VAILLE","Reed Street @ Vaille Avenue",42.459179,-71.239792,1.000000,"4",12/30/1899 0:00:00,12/30/1899 0:00:00,"REED_VAILLE",12.000000,-71.239792,42.459179,0.000000,0.000000,"4 12","7:04:59 AM","7:04:59 AM"
,186,"REED_CANDLEWICK","Reed Street @ Candlewick Close",42.458554,-71.238848,1.000000,"4",12/30/1899 0:00:00,12/30/1899 0:00:00,"REED_CANDLEWICK",13.000000,-71.238848,42.458554,0.000000,0.000000,"4 13","7:05:59 AM","7:05:59 AM"
,187,"REED_CARLEY","Reed Street @ Carley Road",42.457960,-71.237614,1.000000,"4",12/30/1899 0:00:00,12/30/1899 0:00:00,"REED_CARLEY",14.000000,-71.237614,42.457960,0.000000,0.000000,"4 14","7:05:59 AM","7:05:59 AM"
,188,"MILK_CARLEY","Milk Street @ Carley Road",42.456892,-71.238612,1.000000,"4",12/30/1899 0:00:00,12/30/1899 0:00:00,"MILK_CARLEY",15.000000,-71.238612,42.456892,0.000000,0.000000,"4 15","7:05:59 AM","7:05:59 AM"
,189,"MILK_MANNING","Milk Street opposite Manning Street",42.456354,-71.238140,1.000000,"4",12/30/1899 0:00:00,12/30/1899 0:00:00,"MILK_MANNING",16.000000,-71.238140,42.456354,0.000000,0.000000,"4 16","7:06:59 AM","7:06:59 AM"
,190,"MILK_HILL","Milk Street @ Hill Street",42.455301,-71.237153,1.000000,"4",12/30/1899 0:00:00,12/30/1899 0:00:00,"MILK_HILL",17.000000,-71.237153,42.455301,0.000000,0.000000,"4 17","7:06:01 AM","7:06:01 AM"
,191,"HILL_DIANA","Hill Street opposite Diana Lane",42.453409,-71.243075,1.000000,"4",12/30/1899 0:00:00,12/30/1899 0:00:00,"HILL_DIANA",18.000000,-71.243075,42.453409,0.000000,0.000000,"4 18","7:06:02 AM","7:06:02 AM"
,192,"HILL_TURNBURRY","Hill Street opposite Turnburry Hill Road",42.451145,-71.244298,1.000000,"4",12/30/1899 0:00:00,12/30/1899 0:00:00,"HILL_TURNBURRY",19.000000,-71.244298,42.451145,0.000000,0.000000,"4 19","7:07:03 AM","7:07:03 AM"
,193,"PAUL_CEDAR","Paul Revere Road @ Cedar Street",42.450638,-71.245715,1.000000,"4",12/30/1899 0:00:00,12/30/1899 0:00:00,"PAUL_CEDAR",20.000000,-71.245715,42.450638,0.000000,0.000000,"4 20","7:07:04 AM","7:07:04 AM"
,194,"PAUL_GREENWOOD","Paul Revere Road @ Greenwood Street",42.449791,-71.248601,1.000000,"4",12/30/1899 0:00:00,12/30/1899 0:00:00,"PAUL_GREENWOOD",21.000000,-71.248601,42.449791,0.000000,0.000000,"4 21","7:08:05 AM","7:08:05 AM"
,195,"PAUL_ASHBURY","Paul Revere Road @ Ashbury Road",42.449665,-71.249491,1.000000,"4",12/30/1899 0:00:00,12/30/1899 0:00:00,"PAUL_ASHBURY",22.000000,-71.249491,42.449665,0.000000,0.000000,"4 22","7:08:06 AM","7:08:06 AM"
,196,"PAUL_HARBELL","Paul Revere Road @ Harbell Street",42.449332,-71.250822,1.000000,"4",12/30/1899 0:00:00,12/30/1899 0:00:00,"PAUL_HARBELL",23.000000,-71.250822,42.449332,0.000000,0.000000,"4 23","7:09:07 AM","7:09:07 AM"
,197,"PAUL_CONSTITUTION","Paul Revere Road @ Constitution Road",42.449166,-71.252109,1.000000,"4",12/30/1899 0:00:00,12/30/1899 0:00:00,"PAUL_CONSTITUTION",24.000000,-71.252109,42.449166,0.000000,0.000000,"4 24","7:09:08 AM","7:09:08 AM"
,198,"PAUL_ROSS","Paul Revere Road @ Ross Road",42.448342,-71.253547,1.000000,"4",12/30/1899 0:00:00,12/30/1899 0:00:00,"PAUL_ROSS",25.000000,-71.253547,42.448342,0.000000,0.000000,"4 25","7:09:09 AM","7:09:09 AM"
,199,"MASS_CROSBY","Massachusetts Avenue @ Crosby Road",42.446886,-71.252806,1.000000,"4",12/30/1899 0:00:00,12/30/1899 0:00:00,"MASS_CROSBY",27.000000,-71.252806,42.446886,0.000000,0.000000,"4 27","7:09:11 AM","7:09:11 AM"
,200,"MASS_SCHOOL","Massachusetts Avenue @ School Street",42.447020,-71.251315,1.000000,"4",12/30/1899 0:00:00,12/30/1899 0:00:00,"MASS_SCHOOL",28.000000,-71.251315,42.447020,0.000000,0.000000,"4 28","7:10:12 AM","7:10:12 AM"
,201,"SCHOOL_STIMSON","School Street opposite Stimson Avenue",42.446442,-71.251497,1.000000,"4",12/30/1899 0:00:00,12/30/1899 0:00:00,"SCHOOL_STIMSON",29.000000,-71.251497,42.446442,0.000000,0.000000,"4 29","7:10:13 AM","7:10:13 AM"
,202,"SCHOOL_EASTERN","School Street opposite Eastern Avenue",42.444835,-71.251948,1.000000,"4",12/30/1899 0:00:00,12/30/1899 0:00:00,"SCHOOL_EASTERN",30.000000,-71.251948,42.444835,0.000000,0.000000,"4 30","7:11:14 AM","7:11:14 AM"
,203,"SCHOOL_ROOSEVELT","School Street @ Roosevelt Road",42.444170,-71.252066,1.000000,"4",12/30/1899 0:00:00,12/30/1899 0:00:00,"SCHOOL_ROOSEVELT",31.000000,-71.252066,42.444170,0.000000,0.000000,"4 31","7:11:15 AM","7:11:15 AM"
,204,"SCHOOL_ROLLING","School Street opposite Rolling Lane",42.441771,-71.251508,1.000000,"4",12/30/1899 0:00:00,12/30/1899 0:00:00,"SCHOOL_ROLLING",32.000000,-71.251508,42.441771,0.000000,0.000000,"4 32","7:11:16 AM","7:11:16 AM"
,205,"MARRETT_SCHOOL","Marrett Road opposite School Street",42.440425,-71.251540,1.000000,"4",12/30/1899 0:00:00,12/30/1899 0:00:00,"MARRETT_SCHOOL",33.000000,-71.251540,42.440425,0.000000,0.000000,"4 33","7:11:17 AM","7:11:17 AM"
,206,"MARRETT_LINCOLN","Marrett Road @ Lincoln Street",42.440109,-71.251025,1.000000,"4",12/30/1899 0:00:00,12/30/1899 0:00:00,"MARRETT_LINCOLN",34.000000,-71.251025,42.440109,0.000000,0.000000,"4 34","7:12:18 AM","7:12:18 AM"
,207,"MARRETT_COPPERSMYTH","Marrett Road opposite Coppersmyth Way",42.438937,-71.250414,1.000000,"4",12/30/1899 0:00:00,12/30/1899 0:00:00,"MARRETT_COPPERSMYTH",35.000000,-71.250414,42.438937,0.000000,0.000000,"4 35","7:13:19 AM","7:13:19 AM"
,208,"MARRETT_MIDDLE","Marrett Road @ Middle Street",42.435738,-71.248000,1.000000,"4",12/30/1899 0:00:00,12/30/1899 0:00:00,"MARRETT_MIDDLE",36.000000,-71.248000,42.435738,0.000000,0.000000,"4 36","7:13:20 AM","7:13:20 AM"
,209,"MARRETT_TUFTS","Marrett Road @ Tufts Road",42.435389,-71.246176,1.000000,"4",12/30/1899 0:00:00,12/30/1899 0:00:00,"MARRETT_TUFTS",37.000000,-71.246176,42.435389,0.000000,0.000000,"4 37","7:14:21 AM","7:14:21 AM"
,210,"MARRETT_SPRING","Marrett Road @ Spring Street",42.434218,-71.241756,1.000000,"4",12/30/1899 0:00:00,12/30/1899 0:00:00,"MARRETT_SPRING",38.000000,-71.241756,42.434218,0.000000,0.000000,"4 38","7:14:22 AM","7:14:22 AM"
,211,"SPRING_GRASSLAND","Spring Street opposite Grassland Street",42.433600,-71.242314,1.000000,"4",12/30/1899 0:00:00,12/30/1899 0:00:00,"SPRING_GRASSLAND",39.000000,-71.242314,42.433600,0.000000,0.000000,"4 39","7:14:23 AM","7:14:23 AM"
,212,"SPRING_HUDSON","Spring Street opposite Hudson Road",42.431953,-71.243826,1.000000,"4",12/30/1899 0:00:00,12/30/1899 0:00:00,"SPRING_HUDSON",40.000000,-71.243826,42.431953,0.000000,0.000000,"4 40","7:14:24 AM","7:14:24 AM"
,213,"SPRING_UNDERWOOD","Spring Street opposite Underwood Avenue",42.429846,-71.245629,1.000000,"4",12/30/1899 0:00:00,12/30/1899 0:00:00,"SPRING_UNDERWOOD",41.000000,-71.245629,42.429846,0.000000,0.000000,"4 41","7:15:25 AM","7:15:25 AM"
,214,"SPRING_WOODCLIFFE","Spring Street opposite Woodcliffe Road",42.428500,-71.246723,1.000000,"4",12/30/1899 0:00:00,12/30/1899 0:00:00,"SPRING_WOODCLIFFE",42.000000,-71.246723,42.428500,0.000000,0.000000,"4 42","7:15:26 AM","7:15:26 AM"
,215,"SPRING_HAYDEN","Spring Street @ Hayden Avenue",42.425031,-71.250414,1.000000,"4",12/30/1899 0:00:00,12/30/1899 0:00:00,"SPRING_HAYDEN",43.000000,-71.250414,42.425031,0.000000,0.000000,"4 43","7:15:27 AM","7:15:27 AM"
,216,"LAHEY","Lexington Lahey",42.422450,-71.236112,1.000000,"4",12/30/1899 0:00:00,12/30/1899 0:00:00,"LAHEY",44.000000,-71.236112,42.422450,0.000000,0.000000,"4 44","7:16:28 AM","7:16:28 AM"
,217,"HAYDEN_SPRING","Hayden Avenue @ Spring Street",42.425126,-71.250382,1.000000,"4",12/30/1899 0:00:00,12/30/1899 0:00:00,"HAYDEN_SPRING",51.000000,-71.250382,42.425126,0.000000,0.000000,"4 51","7:21:35 AM","7:21:35 AM"
,218,"SPRING_WOODCLIFFE2","Spring Street @ Woodcliffe Road",42.428358,-71.246659,1.000000,"4",12/30/1899 0:00:00,12/30/1899 0:00:00,"SPRING_WOODCLIFFE2",52.000000,-71.246659,42.428358,0.000000,0.000000,"4 52","7:22:36 AM","7:22:36 AM"
,219,"SPRING_UNDERWOOD2","Spring Street @ Underwood Avenue",42.429720,-71.245500,1.000000,"4",12/30/1899 0:00:00,12/30/1899 0:00:00,"SPRING_UNDERWOOD2",53.000000,-71.245500,42.429720,0.000000,0.000000,"4 53","7:23:37 AM","7:23:37 AM"
,220,"SPRING_HUDSON2","Spring Street @ Hudson Road",42.431858,-71.243719,1.000000,"4",12/30/1899 0:00:00,12/30/1899 0:00:00,"SPRING_HUDSON2",54.000000,-71.243719,42.431858,0.000000,0.000000,"4 54","7:23:38 AM","7:23:38 AM"
,221,"SPRING_GRASSLAND2","Spring Street @ Grassland Street",42.433489,-71.242174,1.000000,"4",12/30/1899 0:00:00,12/30/1899 0:00:00,"SPRING_GRASSLAND2",55.000000,-71.242174,42.433489,0.000000,0.000000,"4 55","7:24:39 AM","7:24:39 AM"
,222,"MARRETT_SPRING2","Marrett Road opposite Spring Street",42.434392,-71.241895,1.000000,"4",12/30/1899 0:00:00,12/30/1899 0:00:00,"MARRETT_SPRING2",56.000000,-71.241895,42.434392,0.000000,0.000000,"4 56","7:24:40 AM","7:24:40 AM"
,223,"MARRETT_TUFTS2","Marrett Road opposite Tufts Road",42.435548,-71.246208,1.000000,"4",12/30/1899 0:00:00,12/30/1899 0:00:00,"MARRETT_TUFTS2",57.000000,-71.246208,42.435548,0.000000,0.000000,"4 57","7:24:41 AM","7:24:41 AM"
,224,"MARRETT_MIDDLE2","Marrett Road opposite Middle Street",42.435880,-71.247882,1.000000,"4",12/30/1899 0:00:00,12/30/1899 0:00:00,"MARRETT_MIDDLE2",58.000000,-71.247882,42.435880,0.000000,0.000000,"4 58","7:25:42 AM","7:25:42 AM"
,225,"MARRETT_COPPERSMYTH2","Marrett Road @ Coppersmyth Way",42.438984,-71.250349,1.000000,"4",12/30/1899 0:00:00,12/30/1899 0:00:00,"MARRETT_COPPERSMYTH2",59.000000,-71.250349,42.438984,0.000000,0.000000,"4 59","7:26:43 AM","7:26:43 AM"
,226,"LINCOLN_MIDDLEBY","Lincoln Street @ Middleby Road",42.441288,-71.245811,1.000000,"4",12/30/1899 0:00:00,12/30/1899 0:00:00,"LINCOLN_MIDDLEBY",61.000000,-71.245811,42.441288,0.000000,0.000000,"4 61","7:26:45 AM","7:26:45 AM"
,227,"LINCOLN_LINCOLN","Lincoln Street opposite Lincoln Terrace",42.445952,-71.240447,1.000000,"4",12/30/1899 0:00:00,12/30/1899 0:00:00,"LINCOLN_LINCOLN",62.000000,-71.240447,42.445952,0.000000,0.000000,"4 62","7:27:46 AM","7:27:46 AM"
,228,"LINCOLN_AUDUBON","Lincoln Street opposite Audubon Road",42.446925,-71.239588,1.000000,"4",12/30/1899 0:00:00,12/30/1899 0:00:00,"LINCOLN_AUDUBON",63.000000,-71.239588,42.446925,0.000000,0.000000,"4 63","7:28:47 AM","7:28:47 AM"
,229,"LINCOLN_HASTINGS","Lincoln Street opposite Hastings Road",42.447677,-71.239041,1.000000,"4",12/30/1899 0:00:00,12/30/1899 0:00:00,"LINCOLN_HASTINGS",64.000000,-71.239041,42.447677,0.000000,0.000000,"4 64","7:28:48 AM","7:28:48 AM"
,230,"WORTHEN_LINCOLN","Worthen Road opposite Lincoln Street",42.448176,-71.237078,1.000000,"4",12/30/1899 0:00:00,12/30/1899 0:00:00,"WORTHEN_LINCOLN",65.000000,-71.237078,42.448176,0.000000,0.000000,"4 65","7:28:49 AM","7:28:49 AM"
,231,"WORTHEN_MASS","Worthen Road @ Massachusetts Avenue",42.449071,-71.237078,1.000000,"4",12/30/1899 0:00:00,12/30/1899 0:00:00,"WORTHEN_MASS",66.000000,-71.237078,42.449071,0.000000,0.000000,"4 66","7:28:50 AM","7:28:50 AM"
,232,"MASS_PARKER","Massachusetts Avenue @ Parker Street!",42.449261,-71.236187,1.000000,"4",12/30/1899 0:00:00,12/30/1899 0:00:00,"MASS_PARKER",67.000000,-71.236187,42.449261,0.000000,0.000000,"4 67","7:29:51 AM","7:29:51 AM"
,233,"MASS_FOREST","Massachusetts Avenue @ Forest Street",42.449403,-71.234192,1.000000,"4",12/30/1899 0:00:00,12/30/1899 0:00:00,"MASS_FOREST",68.000000,-71.234192,42.449403,0.000000,0.000000,"4 68","7:29:52 AM","7:29:52 AM"
,234,"MASSACHUSETTS_HARRINGTON","Massachusetts Avenue opposite Harrington Road",42.449482,-71.232604,1.000000,"4",12/30/1899 0:00:00,12/30/1899 0:00:00,"MASSACHUSETTS_HARRINGTON",69.000000,-71.232604,42.449482,0.000000,0.000000,"4 69","7:29:53 AM","7:29:53 AM"
,235,"SHOP","Stop and Shop",42.452202,-71.233183,1.000000,"4fg",12/30/1899 0:00:00,12/30/1899 0:00:00,"SHOP",3.000000,-71.233183,42.452202,3.000000,0.000000,"4fg 3","9:02:03 AM","9:02:03 AM"
,236,"GREELEY","Greeley Village",42.453512,-71.236617,1.000000,"4fg",12/30/1899 0:00:00,12/30/1899 0:00:00,"GREELEY",7.000000,-71.236617,42.453512,7.000000,0.000000,"4fg 7","9:04:06 AM","9:04:06 AM"
,237,"MASS_HARRINGTON2","Massachusetts Avenue @ Harrington Street",42.449641,-71.232819,1.000000,"2v",12/30/1899 0:00:00,12/30/1899 0:00:00,"MASS_HARRINGTON2",2.000000,-71.232819,42.449641,0.000000,0.000000,"2v 2","9:00:01 AM","9:00:01 AM"
,238,"MASS_FOREST2","Massachusetts Avenue opposite Forest Street",42.449562,-71.234127,1.000000,"2v",12/30/1899 0:00:00,12/30/1899 0:00:00,"MASS_FOREST2",3.000000,-71.234127,42.449562,0.000000,0.000000,"2v 3","9:00:02 AM","9:00:02 AM"
,239,"MASS_PARKER!","Massachusetts Avenue opposite Parker Street!",42.449387,-71.236273,1.000000,"2v",12/30/1899 0:00:00,12/30/1899 0:00:00,"MASS_PARKER!",4.000000,-71.236273,42.449387,0.000000,0.000000,"2v 4","9:01:03 AM","9:01:03 AM"
,240,"MASS_WORTHEN2","Massachusetts Avenue @ Worthen Road",42.449229,-71.237046,1.000000,"2v",12/30/1899 0:00:00,12/30/1899 0:00:00,"MASS_WORTHEN2",5.000000,-71.237046,42.449229,0.000000,0.000000,"2v 5","9:01:04 AM","9:01:04 AM"
,241,"WORTHEN_LINCOLN2","Worthen Road @ Lincoln Street",42.448232,-71.237303,1.000000,"2v",12/30/1899 0:00:00,12/30/1899 0:00:00,"WORTHEN_LINCOLN2",6.000000,-71.237303,42.448232,0.000000,0.000000,"2v 6","9:02:05 AM","9:02:05 AM"
,242,"WORTHEN","Worthen Road",42.445920,-71.237732,1.000000,"2v",12/30/1899 0:00:00,12/30/1899 0:00:00,"WORTHEN",7.000000,-71.237732,42.445920,0.000000,0.000000,"2v 7","9:02:06 AM","9:02:06 AM"
,243,"WORTHEN_BASKIN","Worthen Road @ Baskin Road",42.441827,-71.233977,1.000000,"2v",12/30/1899 0:00:00,12/30/1899 0:00:00,"WORTHEN_BASKIN",8.000000,-71.233977,42.441827,0.000000,0.000000,"2v 8","9:02:07 AM","9:02:07 AM"
,244,"WORTHEN_BUSHNELL","Worthen Road @ Bushnell Drive",42.441209,-71.233216,1.000000,"2v",12/30/1899 0:00:00,12/30/1899 0:00:00,"WORTHEN_BUSHNELL",9.000000,-71.233216,42.441209,0.000000,0.000000,"2v 9","9:03:08 AM","9:03:08 AM"
,245,"WORTHEN_WALTHAM","Worthen Road @ Waltham Street",42.440837,-71.232636,1.000000,"2v",12/30/1899 0:00:00,12/30/1899 0:00:00,"WORTHEN_WALTHAM",10.000000,-71.232636,42.440837,0.000000,0.000000,"2v 10","9:03:09 AM","9:03:09 AM"
,246,"WORTHEN_CAPTAIN","Worthen Road @ Captain Parker Arms Street",42.439594,-71.230866,1.000000,"2v",12/30/1899 0:00:00,12/30/1899 0:00:00,"WORTHEN_CAPTAIN",11.000000,-71.230866,42.439594,0.000000,0.000000,"2v 11","9:04:10 AM","9:04:10 AM"
,247,"WORTHEN_RYDER","Worthen Road @ Ryder Lane",42.439151,-71.230276,1.000000,"2v",12/30/1899 0:00:00,12/30/1899 0:00:00,"WORTHEN_RYDER",12.000000,-71.230276,42.439151,0.000000,0.000000,"2v 12","9:04:11 AM","9:04:11 AM"
,248,"WORTHEN_KENDALL","Worthen Road @ Kendall Road",42.438264,-71.228870,1.000000,"2v",12/30/1899 0:00:00,12/30/1899 0:00:00,"WORTHEN_KENDALL",13.000000,-71.228870,42.438264,0.000000,0.000000,"2v 13","9:05:12 AM","9:05:12 AM"
,249,"KENDALL_SHERBURNE","Kendall Road opposite Sherburne Road",42.437488,-71.229192,1.000000,"2v",12/30/1899 0:00:00,12/30/1899 0:00:00,"KENDALL_SHERBURNE",14.000000,-71.229192,42.437488,0.000000,0.000000,"2v 14","9:05:13 AM","9:05:13 AM"
,250,"KENDALL_APOLLO","Kendall Road @ Apollo Circle",42.435857,-71.230383,1.000000,"2v",12/30/1899 0:00:00,12/30/1899 0:00:00,"KENDALL_APOLLO",15.000000,-71.230383,42.435857,0.000000,0.000000,"2v 15","9:05:14 AM","9:05:14 AM"
,251,"KENDALL_MARRETT","Marrett Road @ Kendal Road",42.434598,-71.231166,1.000000,"2v",12/30/1899 0:00:00,12/30/1899 0:00:00,"KENDALL_MARRETT",16.000000,-71.231166,42.434598,0.000000,0.000000,"2v 16","9:05:15 AM","9:05:15 AM"
,252,"MARRETT_MALT","Marrett Road opposite Malt Lane",42.433766,-71.228066,1.000000,"2v",12/30/1899 0:00:00,12/30/1899 0:00:00,"MARRETT_MALT",17.000000,-71.228066,42.433766,0.000000,0.000000,"2v 17","9:06:16 AM","9:06:16 AM"
,253,"MARRETT_BACON","Marrett Road @ Bacon Street",42.434130,-71.222390,1.000000,"2v",12/30/1899 0:00:00,12/30/1899 0:00:00,"MARRETT_BACON",18.000000,-71.222390,42.434130,0.000000,0.000000,"2v 18","9:07:17 AM","9:07:17 AM"
,254,"MARRETT_TRICORNE","Marrett Road opposite Tricorne Road",42.434447,-71.218431,1.000000,"2v",12/30/1899 0:00:00,12/30/1899 0:00:00,"MARRETT_TRICORNE",19.000000,-71.218431,42.434447,0.000000,0.000000,"2v 19","9:08:18 AM","9:08:18 AM"
,255,"MARRETT_FOLLEN","Marrett Road @ Follen Road",42.434796,-71.216865,1.000000,"2v",12/30/1899 0:00:00,12/30/1899 0:00:00,"MARRETT_FOLLEN",20.000000,-71.216865,42.434796,0.000000,0.000000,"2v 20","9:08:19 AM","9:08:19 AM"
,256,"FOLLEN_PADDOCK","Follen Road @ Paddock Lane",42.434368,-71.216543,1.000000,"2v",12/30/1899 0:00:00,12/30/1899 0:00:00,"FOLLEN_PADDOCK",21.000000,-71.216543,42.434368,0.000000,0.000000,"2v 21","9:08:20 AM","9:08:20 AM"
,257,"FOLLEN_RICHARD","Follen Road opposite Richard Road",42.432895,-71.215588,1.000000,"2v",12/30/1899 0:00:00,12/30/1899 0:00:00,"FOLLEN_RICHARD",22.000000,-71.215588,42.432895,0.000000,0.000000,"2v 22","9:08:21 AM","9:08:21 AM"
,258,"FOLLEN_LOCUST","Follen Road @ Locust Avenue",42.431343,-71.215717,1.000000,"2v",12/30/1899 0:00:00,12/30/1899 0:00:00,"FOLLEN_LOCUST",23.000000,-71.215717,42.431343,0.000000,0.000000,"2v 23","9:09:22 AM","9:09:22 AM"
,259,"FOLLEN_DAWES","Follen Road @ Dawes Road",42.429609,-71.214987,1.000000,"2v",12/30/1899 0:00:00,12/30/1899 0:00:00,"FOLLEN_DAWES",24.000000,-71.214987,42.429609,0.000000,0.000000,"2v 24","9:09:23 AM","9:09:23 AM"
,260,"DAWES_BUCKMAN","Dawes Road @ Buckman Drive",42.429300,-71.215813,1.000000,"2v",12/30/1899 0:00:00,12/30/1899 0:00:00,"DAWES_BUCKMAN",25.000000,-71.215813,42.429300,0.000000,0.000000,"2v 25","9:10:24 AM","9:10:24 AM"
,261,"BUCKMAN_SUNSET","Buckman Drive opposite Sunset Ridge",42.426972,-71.214569,1.000000,"2v",12/30/1899 0:00:00,12/30/1899 0:00:00,"BUCKMAN_SUNSET",26.000000,-71.214569,42.426972,0.000000,0.000000,"2v 26","9:10:25 AM","9:10:25 AM"
,262,"BUCKMAN_PHILLIP","Buckman Drive @ Phillip Road",42.426322,-71.214322,1.000000,"2v",12/30/1899 0:00:00,12/30/1899 0:00:00,"BUCKMAN_PHILLIP",27.000000,-71.214322,42.426322,0.000000,0.000000,"2v 27","9:10:26 AM","9:10:26 AM"
,263,"PHILLIP_LANTERN","Phillip Road @ Lantern Lane",42.426037,-71.215459,1.000000,"2v",12/30/1899 0:00:00,12/30/1899 0:00:00,"PHILLIP_LANTERN",28.000000,-71.215459,42.426037,0.000000,0.000000,"2v 28","9:10:27 AM","9:10:27 AM"
,264,"PHILLIP_ROCKVILLE","Phillip Road @ Rockville Avenue",42.423717,-71.216350,1.000000,"2v",12/30/1899 0:00:00,12/30/1899 0:00:00,"PHILLIP_ROCKVILLE",29.000000,-71.216350,42.423717,0.000000,0.000000,"2v 29","9:11:28 AM","9:11:28 AM"
,265,"PHILLIP_GOFFE","Phillip Road @ Goffe Road",42.422933,-71.216049,1.000000,"2v",12/30/1899 0:00:00,12/30/1899 0:00:00,"PHILLIP_GOFFE",30.000000,-71.216049,42.422933,0.000000,0.000000,"2v 30","9:11:29 AM","9:11:29 AM"
,266,"PHILLIP_DUDLEY","Phillip Road @ Dudley Road",42.421151,-71.215277,1.000000,"2v",12/30/1899 0:00:00,12/30/1899 0:00:00,"PHILLIP_DUDLEY",31.000000,-71.215277,42.421151,0.000000,0.000000,"2v 31","9:11:30 AM","9:11:30 AM"
,267,"WORTHEN_PHILLIP","Worthen Road East opposite Phillip Road",42.419440,-71.214397,1.000000,"2v",12/30/1899 0:00:00,12/30/1899 0:00:00,"WORTHEN_PHILLIP",32.000000,-71.214397,42.419440,0.000000,0.000000,"2v 32","9:12:31 AM","9:12:31 AM"
,268,"WORTHEN_PLEASANT","Pleasant Street opposite Worthen Road East",42.419163,-71.213432,1.000000,"2v",12/30/1899 0:00:00,12/30/1899 0:00:00,"WORTHEN_PLEASANT",33.000000,-71.213432,42.419163,0.000000,0.000000,"2v 33","9:12:32 AM","9:12:32 AM"
,269,"PLEASANT_2","Pleasant Street @ Route 2",42.418688,-71.214451,1.000000,"2v",12/30/1899 0:00:00,12/30/1899 0:00:00,"PLEASANT_2",34.000000,-71.214451,42.418688,0.000000,0.000000,"2v 34","9:13:33 AM","9:13:33 AM"
,270,"PLEASANT_22","Pleasant Street @ Route 2",42.417666,-71.216715,1.000000,"2v",12/30/1899 0:00:00,12/30/1899 0:00:00,"PLEASANT_22",35.000000,-71.216715,42.417666,0.000000,0.000000,"2v 35","9:14:34 AM","9:14:34 AM"
,271,"PLEASANT_STEARNS","Pleasant Street @ Stearns Road",42.417064,-71.218184,1.000000,"2v",12/30/1899 0:00:00,12/30/1899 0:00:00,"PLEASANT_STEARNS",36.000000,-71.218184,42.417064,0.000000,0.000000,"2v 36","9:14:35 AM","9:14:35 AM"
,272,"CONCORD_PLEASANT","Concord Avenue opposite Pleasant Street",42.415432,-71.218764,1.000000,"2v",12/30/1899 0:00:00,12/30/1899 0:00:00,"CONCORD_PLEASANT",37.000000,-71.218764,42.415432,0.000000,0.000000,"2v 37","9:14:36 AM","9:14:36 AM"
,273,"CONCORD_BLOSSOM","Concord Avenue @ Blossom Street",42.417111,-71.224214,1.000000,"2v",12/30/1899 0:00:00,12/30/1899 0:00:00,"CONCORD_BLOSSOM",44.000000,-71.224214,42.417111,0.000000,0.000000,"2v 44","9:20:43 AM","9:20:43 AM"
,274,"CONCORD_APRIL","Concord Avenue @ April Lane",42.418331,-71.230222,1.000000,"2v",12/30/1899 0:00:00,12/30/1899 0:00:00,"CONCORD_APRIL",45.000000,-71.230222,42.418331,0.000000,0.000000,"2v 45","9:20:44 AM","9:20:44 AM"
,275,"CONCORD_WALTHAM","Concord Avenue @ Waltham Street",42.418284,-71.231724,1.000000,"2v",12/30/1899 0:00:00,12/30/1899 0:00:00,"CONCORD_WALTHAM",46.000000,-71.231724,42.418284,0.000000,0.000000,"2v 46","9:21:45 AM","9:21:45 AM"
,276,"WALTHAM_LEXINGTON","Waltham Street @ Lexington Ridge Drive",42.414656,-71.232411,1.000000,"2v",12/30/1899 0:00:00,12/30/1899 0:00:00,"WALTHAM_LEXINGTON",47.000000,-71.232411,42.414656,0.000000,0.000000,"2v 47","9:21:46 AM","9:21:46 AM"
,277,"LEXINGTON","Lexington Ridge (Avalon Apartments)",42.414909,-71.233462,1.000000,"2v",12/30/1899 0:00:00,12/30/1899 0:00:00,"LEXINGTON",48.000000,-71.233462,42.414909,0.000000,0.000000,"2v 48","9:22:47 AM","9:22:47 AM"
,279,"WALTHAM_PIPER","Waltham Street @ Piper Road",42.420264,-71.231617,1.000000,"2v",12/30/1899 0:00:00,12/30/1899 0:00:00,"WALTHAM_PIPER",50.000000,-71.231617,42.420264,0.000000,0.000000,"2v 50","9:24:49 AM","9:24:49 AM"
,280,"WALTHAM_BLOSSOMCREST","Waltham Street @ Blossomcrest Road",42.423812,-71.231381,1.000000,"2v",12/30/1899 0:00:00,12/30/1899 0:00:00,"WALTHAM_BLOSSOMCREST",51.000000,-71.231381,42.423812,0.000000,0.000000,"2v 51","9:24:50 AM","9:24:50 AM"
,281,"WALTHAM_ALLEN","Waltham Street @ Allen Street",42.427566,-71.230877,1.000000,"2v",12/30/1899 0:00:00,12/30/1899 0:00:00,"WALTHAM_ALLEN",52.000000,-71.230877,42.427566,0.000000,0.000000,"2v 52","9:24:51 AM","9:24:51 AM"
,282,"WALTHAM_BROOKSIDE","Waltham Street @ Brookside Avenue",42.431145,-71.232636,1.000000,"2v",12/30/1899 0:00:00,12/30/1899 0:00:00,"WALTHAM_BROOKSIDE",53.000000,-71.232636,42.431145,0.000000,0.000000,"2v 53","9:24:52 AM","9:24:52 AM"
,283,"WALTHAM_KENDALL","Waltham Street @ Kendall Road",42.432832,-71.233677,1.000000,"2v",12/30/1899 0:00:00,12/30/1899 0:00:00,"WALTHAM_KENDALL",54.000000,-71.233677,42.432832,0.000000,0.000000,"2v 54","9:24:53 AM","9:24:53 AM"
,284,"WALTHAM_FARMCREST","Waltham Street @ Farmcrest Avenue",42.434867,-71.234299,1.000000,"2v",12/30/1899 0:00:00,12/30/1899 0:00:00,"WALTHAM_FARMCREST",55.000000,-71.234299,42.434867,0.000000,0.000000,"2v 55","9:24:54 AM","9:24:54 AM"
,285,"WALTHAM_MARRETT","Waltham Street @ Marrett Road",42.435706,-71.234557,1.000000,"2v",12/30/1899 0:00:00,12/30/1899 0:00:00,"WALTHAM_MARRETT",56.000000,-71.234557,42.435706,0.000000,0.000000,"2v 56","9:24:55 AM","9:24:55 AM"
,286,"WALTHAM","Waltham Street",42.439269,-71.233452,1.000000,"2v",12/30/1899 0:00:00,12/30/1899 0:00:00,"WALTHAM",58.000000,-71.233452,42.439269,0.000000,0.000000,"2v 58","9:25:57 AM","9:25:57 AM"
,287,"WALTHAM_WORTHEN2","Waltham Street @ Worthen Road",42.440679,-71.232518,1.000000,"2v",12/30/1899 0:00:00,12/30/1899 0:00:00,"WALTHAM_WORTHEN2",59.000000,-71.232518,42.440679,0.000000,0.000000,"2v 59","9:25:58 AM","9:25:58 AM"
,288,"WALTHAM_WINTHROP","Waltham Street @ Winthrop Road",42.442967,-71.230083,1.000000,"2v",12/30/1899 0:00:00,12/30/1899 0:00:00,"WALTHAM_WINTHROP",60.000000,-71.230083,42.442967,0.000000,0.000000,"2v 60","9:26:59 AM","9:26:59 AM"
,289,"WALTHAM_VYNEBROOK","Waltham Street @ Vynebrook Village",42.444827,-71.228827,1.000000,"2v",12/30/1899 0:00:00,12/30/1899 0:00:00,"WALTHAM_VYNEBROOK",61.000000,-71.228827,42.444827,0.000000,0.000000,"2v 61","9:27:01 AM","9:27:01 AM"
,290,"VYNEBROOK","Vynebrook Village",42.444487,-71.228001,1.000000,"2v",12/30/1899 0:00:00,12/30/1899 0:00:00,"VYNEBROOK",62.000000,-71.228001,42.444487,0.000000,0.000000,"2v 62","9:28:02 AM","9:28:02 AM"
,291,"WALTHAM_VINEBROOK","Waltham Street @ Vine brook Road",42.446308,-71.228044,1.000000,"2v",12/30/1899 0:00:00,12/30/1899 0:00:00,"WALTHAM_VINEBROOK",63.000000,-71.228044,42.446308,0.000000,0.000000,"2v 63","9:28:03 AM","9:28:03 AM"
,292,"WALTHAM_MASS","Waltham Street @ Massachusetts Avenue",42.447369,-71.227089,1.000000,"2v",12/30/1899 0:00:00,12/30/1899 0:00:00,"WALTHAM_MASS",64.000000,-71.227089,42.447369,0.000000,0.000000,"2v 64","9:28:04 AM","9:28:04 AM"
,293,"CONCORD_POTTER_POND","Concord Avenue @ Potter Pond Road",42.412676,-71.212777,1.000000,"2v",12/30/1899 0:00:00,12/30/1899 0:00:00,"CONCORD_POTTER_POND",38.000000,-71.212777,42.412676,0.000000,0.000000,"2v 38","9:14:37 AM","9:14:37 AM"
,294,"PLEASANT_FERN","Pleasant Street opposite Fern St",42.427597,-71.206919,1.000000,"1",12/30/1899 0:00:00,12/30/1899 0:00:00,"PLEASANT_FERN",16.000000,-71.206919,42.427597,0.000000,0.000000,"1 16","7:35:15 AM","7:35:15 AM"
,295,"WATERTOWN_PLEASANT","Watertown Street opposite Pleasant St",42.422069,-71.208915,1.000000,"1",12/30/1899 0:00:00,12/30/1899 0:00:00,"WATERTOWN_PLEASANT",18.000000,-71.208915,42.422069,0.000000,0.000000,"1 18","7:36:17 AM","7:36:17 AM"
,296,"WATERTOWN_CRESCENT","Watertown Street opposite Crescent Road",42.419329,-71.207498,1.000000,"1",12/30/1899 0:00:00,12/30/1899 0:00:00,"WATERTOWN_CRESCENT",20.000000,-71.207498,42.419329,0.000000,0.000000,"1 20","7:36:19 AM","7:36:19 AM"
,297,"MASS_FOTTLER","Massachusetts Ave @ Fottler Ave",42.426948,-71.198851,1.000000,"1",12/30/1899 0:00:00,12/30/1899 0:00:00,"MASS_FOTTLER",52.000000,-71.198851,42.426948,0.000000,0.000000,"1 52","7:45:51 AM","7:45:51 AM"
,298,"MASS_OAK2","Massachusetts Ave opposite Oak St",42.427645,-71.203550,1.000000,"1",12/30/1899 0:00:00,12/30/1899 0:00:00,"MASS_OAK2",54.000000,-71.203550,42.427645,0.000000,0.000000,"1 54","7:45:53 AM","7:45:53 AM"
,299,"MASS_WOBURN","Massachusetts Ave @ Woburn St",42.446157,-71.222819,1.000000,"3",12/30/1899 0:00:00,12/30/1899 0:00:00,"MASS_WOBURN",3.000000,-71.222819,42.446157,0.000000,0.000000,"3 3","7:31:45 AM","7:31:45 AM"
,300,"BEDFORD_REVERE","Bedford Street @ Revere St",42.456829,-71.235780,1.000000,"4",12/30/1899 0:00:00,12/30/1899 0:00:00,"BEDFORD_REVERE",6.000000,-71.235780,42.456829,0.000000,0.000000,"4 6","7:03:57 AM","7:03:57 AM"
,301,"BEDFORD_TEWKSBURY","Bedford Street @ Tewksbury St",42.454913,-71.234256,1.000000,"4",12/30/1899 0:00:00,12/30/1899 0:00:00,"BEDFORD_TEWKSBURY",5.000000,-71.234256,42.454913,0.000000,0.000000,"4 5","7:02:57 AM","7:02:57 AM"
,302,"BEDFORD_VAILLE","Bedford Street @ Vaille Ave",42.459773,-71.238591,1.000000,"4",12/30/1899 0:00:00,12/30/1899 0:00:00,"BEDFORD_VAILLE",8.000000,-71.238591,42.459773,0.000000,0.000000,"4 8","7:03:58 AM","7:03:58 AM"
,303,"BEDFORD_SUNNY","Bedford Street @ Sunny Knoll Ave",42.461119,-71.239342,1.000000,"4",12/30/1899 0:00:00,12/30/1899 0:00:00,"BEDFORD_SUNNY",9.000000,-71.239342,42.461119,0.000000,0.000000,"4 9","7:03:58 AM","7:03:58 AM"
,304,"WALTHAM_WACHUSETT","Waltham Street @ Wachusett Dr",42.437907,-71.234943,1.000000,"2v",12/30/1899 0:00:00,12/30/1899 0:00:00,"WALTHAM_WACHUSETT",57.000000,-71.234943,42.437907,0.000000,0.000000,"2v 57","9:25:56 AM","9:25:56 AM"
,0,"AVALON","Avalon at Lexington Hills",42.407980,-71.212394,1.000000,"2v",12/30/1899 0:00:00,12/30/1899 0:00:00,"AVALON",40.000000,-71.212394,42.407980,0.000000,0.000000,"2v 40","9:17:39 AM","9:17:39 AM"
,0,"CONCORD_FIELD","Concord @ Field",42.420290,-71.243165,0.000000,"4",12/30/1899 0:00:00,12/30/1899 0:00:00,"CONCORD_FIELD",49.000000,-71.243165,42.420290,0.000000,0.000000,"4 49","7:20:33 AM","7:20:33 AM"
,0,"CONCORD_SPRING","Concord @ Spring",42.421032,-71.251368,0.000000,"4",12/30/1899 0:00:00,12/30/1899 0:00:00,"CONCORD_SPRING",50.000000,-71.251368,42.421032,0.000000,0.000000,"4 50","7:21:34 AM","7:21:34 AM"
,0,"CONCORD_OLD_SHAD","Concord @ Old Shade",42.419630,-71.241690,0.000000,"4",12/30/1899 0:00:00,12/30/1899 0:00:00,"CONCORD_OLD_SHAD",48.000000,-71.241690,42.419630,0.000000,0.000000,"4 48","7:20:32 AM","7:20:32 AM"
,0,"CONCORD_BARBERRY","Concord @ Barberry",42.419424,-71.240099,0.000000,"4",12/30/1899 0:00:00,12/30/1899 0:00:00,"CONCORD_BARBERRY",47.000000,-71.240099,42.419424,0.000000,0.000000,"4 47","7:19:31 AM","7:19:31 AM"
,0,"WALTHAM_CONCORD","Waltham @ Concord",42.418445,-71.231715,0.000000,"4",12/30/1899 0:00:00,12/30/1899 0:00:00,"WALTHAM_CONCORD",46.000000,-71.231715,42.418445,0.000000,0.000000,"4 46","7:19:30 AM","7:19:30 AM"
,0,"WALTHAM_HAYDEN","Waltham @ Hayden",42.423043,-71.231582,0.000000,"4",12/30/1899 0:00:00,12/30/1899 0:00:00,"WALTHAM_HAYDEN",45.000000,-71.231582,42.423043,0.000000,0.000000,"4 45","7:18:29 AM","7:18:29 AM"
,34,"ADAMS_HANCOCK","Adams Street @ Hancock Street",42.456544,-71.227519,1.000000,"6",12/30/1899 0:00:00,12/30/1899 0:00:00,"ADAMS_HANCOCK",6.000000,-71.227519,42.456544,0.000000,0.000000,"6 6","8:02:05 AM","8:02:05 AM"
,37,"HANCOCK_HAYES","Hancock Street opposite Hayes Avenue",42.455182,-71.227883,1.000000,"6",12/30/1899 0:00:00,12/30/1899 0:00:00,"HANCOCK_HAYES",53.000000,-71.227883,42.455182,0.000000,0.000000,"6 53","8:23:51 AM","8:23:51 AM"
,38,"HANCOCK_BRIGHAM","Hancock Street @ Brigham Road",42.454280,-71.228162,1.000000,"6",12/30/1899 0:00:00,12/30/1899 0:00:00,"HANCOCK_BRIGHAM",54.000000,-71.228162,42.454280,0.000000,0.000000,"6 54","8:23:52 AM","8:23:52 AM"
,39,"HANCOCK_EDGEWOOD","Hancock Street opposite Edgewood Road",42.452855,-71.228935,1.000000,"5B1",12/30/1899 0:00:00,12/30/1899 0:00:00,"HANCOCK_EDGEWOOD",38.000000,-71.228935,42.452855,0.000000,0.000000,"5B1 38","8:52:38 AM","8:52:38 AM"
,41,"HANCOCK_BEDFORD","Hancock Street @ Bedford Street",42.450369,-71.230201,1.000000,"6",12/30/1899 0:00:00,12/30/1899 0:00:00,"HANCOCK_BEDFORD",2.000000,-71.230201,42.450369,0.000000,0.000000,"6 2","8:00:01 AM","8:00:01 AM"
,41,"HANCOCK_BEDFORD","Hancock Street @ Bedford Street",42.450369,-71.230201,1.000000,"6",12/30/1899 0:00:00,12/30/1899 0:00:00,"HANCOCK_BEDFORD",56.000000,-71.230201,42.450369,0.000000,0.000000,"6 56","8:23:54 AM","8:23:54 AM"
,40,"MBTA","Massachusetts Avenue-MBTA Stop",42.448358,-71.229536,1.000000,"6",12/30/1899 0:00:00,12/30/1899 0:00:00,"MBTA",57.000000,-71.229536,42.448358,0.000000,0.000000,"6 57","8:24:55 AM","8:24:55 AM"
,1,"DEPOT","Depot Square",42.448211,-71.228729,3.000000,"6",12/30/1899 0:00:00,12/30/1899 0:00:00,"DEPOT",58.000000,-71.228729,42.448211,0.000000,0.000000,"6 58","8:25:56 AM","8:25:56 AM"
,1,"DEPOT","Depot Square",42.448211,-71.228729,3.000000,"6",12/30/1899 0:00:00,12/30/1899 0:00:00,"DEPOT",1.000000,-71.228729,42.448211,0.000000,0.000000,"6 1","7:29:56 AM","7:29:56 AM"
,19,"MIDDLESEX_WHEELER","Middlesex Turnpike @ Wheeler Road",42.475547,-71.213830,2.000000,"5B1",12/30/1899 0:00:00,12/30/1899 0:00:00,"MIDDLESEX_WHEELER",20.000000,-71.213830,42.475547,0.000000,0.000000,"5B1 20","8:40:19 AM","8:40:19 AM"
,19,"MIDDLESEX_WHEELER","Middlesex Turnpike @ Wheeler Road",42.475547,-71.213830,2.000000,"5B1",12/30/1899 0:00:00,12/30/1899 0:00:00,"MIDDLESEX_WHEELER",22.000000,-71.213830,42.475547,0.000000,0.000000,"5B1 22","8:45:21 AM","8:45:21 AM"
,22,"MIDDELSEX_ADAMS","Middlesex Turnpike @ Adams",42.472315,-71.211882,2.000000,"5B1",12/30/1899 0:00:00,12/30/1899 0:00:00,"MIDDELSEX_ADAMS",24.000000,-71.211882,42.472315,0.000000,0.000000,"5B1 24","8:46:23 AM","8:46:23 AM"
,39,"HANCOCK_BEDFORD","Hancock Street at Bedford",42.450369,-71.230201,1.000000,"5B1",12/30/1899 0:00:00,12/30/1899 0:00:00,"HANCOCK_BEDFORD",39.000000,-71.230201,42.450369,0.000000,0.000000,"5B1 39","8:53:39 AM","8:53:39 AM"
,39,"MBTA","Massachusetts Avenue-MBTA Stop",42.448358,-71.229536,1.000000,"5B1",12/30/1899 0:00:00,12/30/1899 0:00:00,"MBTA",40.000000,-71.229536,42.448358,0.000000,0.000000,"5B1 40","8:53:40 AM","8:53:40 AM"
,39,"DEPOT","Depot Square",42.448211,-71.228729,1.000000,"5B1",12/30/1899 0:00:00,12/30/1899 0:00:00,"DEPOT",41.000000,-71.228729,42.448211,0.000000,0.000000,"5B1 41","8:54:41 AM","8:54:41 AM"
,40,"DEPOT","Depot Square",42.448220,-71.228730,1.000000,"4",12/30/1899 0:00:00,12/30/1899 0:00:00,"DEPOT",1.000000,-71.228730,42.448220,0.000000,0.000000,"4 1","7:48:56 AM","7:48:56 AM"
,206,"MARRETT_LINCOLN","Marrett Road @ Lincoln Street",42.440109,-71.251025,1.000000,"4",12/30/1899 0:00:00,12/30/1899 0:00:00,"MARRETT_LINCOLN",60.000000,-71.251025,42.440109,0.000000,0.000000,"4 60","7:26:44 AM","7:26:44 AM"
,2,"MASS_PAUL3","Massachusetts Avenue and Paul Revere Road",42.447151,-71.254259,1.000000,"4fg",12/30/1899 0:00:00,12/30/1899 0:00:00,"MASS_PAUL3",28.000000,-71.254259,42.447151,28.000000,0.000000,"4fg 28","9:12:27 AM","9:12:27 AM"
,40,"MBTA","Massachusetts Avenue-MBTA Stop",42.448358,-71.229536,1.000000,"4fg",12/30/1899 0:00:00,12/30/1899 0:00:00,"MBTA",72.000000,-71.229536,42.448358,71.000000,0.000000,"4fg 72","9:30:12 AM","9:30:12 AM"
,41,"HANCOCK_BEDFORD","Hancock Street @ Bedford Street",42.450369,-71.230201,1.000000,"4fg",12/30/1899 0:00:00,12/30/1899 0:00:00,"HANCOCK_BEDFORD",2.000000,-71.230201,42.450369,2.000000,0.000000,"4fg 2","9:00:01 AM","9:00:01 AM"
,180,"BEDFORD_CAMELLIA","Bedford Street @ Camellia Place",42.453045,-71.232497,1.000000,"4fg",12/30/1899 0:00:00,12/30/1899 0:00:00,"BEDFORD_CAMELLIA",4.000000,-71.232497,42.453045,4.000000,0.000000,"4fg 3","9:02:03 AM","9:02:03 AM"
,181,"BEDFORD_LOIS","Bedford Street @ Lois Lane",42.454359,-71.233398,1.000000,"4fg",12/30/1899 0:00:00,12/30/1899 0:00:00,"BEDFORD_LOIS",5.000000,-71.233398,42.454359,5.000000,0.000000,"4fg 4","9:03:04 AM","9:03:04 AM"
,182,"BEDFORD_LARCHMONT","Bedford Street @ Larchmont Lane",42.458032,-71.236960,1.000000,"4fg",12/30/1899 0:00:00,12/30/1899 0:00:00,"BEDFORD_LARCHMONT",9.000000,-71.236960,42.458032,9.000000,0.000000,"4fg 9","9:06:08 AM","9:06:08 AM"
,183,"SUNNY_SUNNY","Sunny Knoll Avenue @ Sunny Knoll Terrace",42.460850,-71.239932,1.000000,"4fg",12/30/1899 0:00:00,12/30/1899 0:00:00,"SUNNY_SUNNY",12.000000,-71.239932,42.460850,12.000000,0.000000,"4fg 12","9:07:11 AM","9:07:11 AM"
,184,"REED_SUNNY","Reed Street @ Sunny Knoll Avenue",42.460383,-71.241262,1.000000,"4fg",12/30/1899 0:00:00,12/30/1899 0:00:00,"REED_SUNNY",13.000000,-71.241262,42.460383,13.000000,0.000000,"4fg 13","9:07:12 AM","9:07:12 AM"
,185,"REED_VAILLE","Reed Street @ Vaille Avenue",42.459179,-71.239792,1.000000,"4fg",12/30/1899 0:00:00,12/30/1899 0:00:00,"REED_VAILLE",14.000000,-71.239792,42.459179,14.000000,0.000000,"4fg 14","9:07:13 AM","9:07:13 AM"
,186,"REED_CANDLEWICK","Reed Street @ Candlewick Close",42.458554,-71.238848,1.000000,"4fg",12/30/1899 0:00:00,12/30/1899 0:00:00,"REED_CANDLEWICK",15.000000,-71.238848,42.458554,15.000000,0.000000,"4fg 15","9:08:14 AM","9:08:14 AM"
,187,"REED_CARLEY","Reed Street @ Carley Road",42.457960,-71.237614,1.000000,"4fg",12/30/1899 0:00:00,12/30/1899 0:00:00,"REED_CARLEY",16.000000,-71.237614,42.457960,16.000000,0.000000,"4fg 16","9:08:15 AM","9:08:15 AM"
,188,"MILK_CARLEY","Milk Street @ Carley Road",42.456892,-71.238612,1.000000,"4fg",12/30/1899 0:00:00,12/30/1899 0:00:00,"MILK_CARLEY",17.000000,-71.238612,42.456892,17.000000,0.000000,"4fg 17","9:08:16 AM","9:08:16 AM"
,189,"MILK_MANNING","Milk Street opposite Manning Street",42.456354,-71.238140,1.000000,"4fg",12/30/1899 0:00:00,12/30/1899 0:00:00,"MILK_MANNING",18.000000,-71.238140,42.456354,18.000000,0.000000,"4fg 18","9:08:17 AM","9:08:17 AM"
,190,"MILK_HILL","Milk Street @ Hill Street",42.455301,-71.237153,1.000000,"4fg",12/30/1899 0:00:00,12/30/1899 0:00:00,"MILK_HILL",19.000000,-71.237153,42.455301,19.000000,0.000000,"4fg 19","9:09:18 AM","9:09:18 AM"
,191,"HILL_DIANA","Hill Street opposite Diana Lane",42.453409,-71.243075,1.000000,"4fg",12/30/1899 0:00:00,12/30/1899 0:00:00,"HILL_DIANA",20.000000,-71.243075,42.453409,20.000000,0.000000,"4fg 20","9:09:19 AM","9:09:19 AM"
,192,"HILL_TURNBURRY","Hill Street opposite Turnburry Hill Road",42.451145,-71.244298,1.000000,"4fg",12/30/1899 0:00:00,12/30/1899 0:00:00,"HILL_TURNBURRY",21.000000,-71.244298,42.451145,21.000000,0.000000,"4fg 21","9:10:20 AM","9:10:20 AM"
,193,"PAUL_CEDAR","Paul Revere Road @ Cedar Street",42.450638,-71.245715,1.000000,"4fg",12/30/1899 0:00:00,12/30/1899 0:00:00,"PAUL_CEDAR",22.000000,-71.245715,42.450638,22.000000,0.000000,"4fg 22","9:11:21 AM","9:11:21 AM"
,194,"PAUL_GREENWOOD","Paul Revere Road @ Greenwood Street",42.449791,-71.248601,1.000000,"4fg",12/30/1899 0:00:00,12/30/1899 0:00:00,"PAUL_GREENWOOD",23.000000,-71.248601,42.449791,23.000000,0.000000,"4fg 23","9:11:22 AM","9:11:22 AM"
,195,"PAUL_ASHBURY","Paul Revere Road @ Ashbury Road",42.449665,-71.249491,1.000000,"4fg",12/30/1899 0:00:00,12/30/1899 0:00:00,"PAUL_ASHBURY",24.000000,-71.249491,42.449665,24.000000,0.000000,"4fg 24","9:11:23 AM","9:11:23 AM"
,196,"PAUL_HARBELL","Paul Revere Road @ Harbell Street",42.449332,-71.250822,1.000000,"4fg",12/30/1899 0:00:00,12/30/1899 0:00:00,"PAUL_HARBELL",25.000000,-71.250822,42.449332,25.000000,0.000000,"4fg 25","9:11:24 AM","9:11:24 AM"
,197,"PAUL_CONSTITUTION","Paul Revere Road @ Constitution Road",42.449166,-71.252109,1.000000,"4fg",12/30/1899 0:00:00,12/30/1899 0:00:00,"PAUL_CONSTITUTION",26.000000,-71.252109,42.449166,26.000000,0.000000,"4fg 26","9:11:25 AM","9:11:25 AM"
,198,"PAUL_ROSS","Paul Revere Road @ Ross Road",42.448342,-71.253547,1.000000,"4fg",12/30/1899 0:00:00,12/30/1899 0:00:00,"PAUL_ROSS",27.000000,-71.253547,42.448342,27.000000,0.000000,"4fg 27","9:12:26 AM","9:12:26 AM"
,199,"MASS_CROSBY","Massachusetts Avenue @ Crosby Road",42.446886,-71.252806,1.000000,"4fg",12/30/1899 0:00:00,12/30/1899 0:00:00,"MASS_CROSBY",29.000000,-71.252806,42.446886,29.000000,0.000000,"4fg 29","9:12:28 AM","9:12:28 AM"
,200,"MASS_SCHOOL","Massachusetts Avenue @ School Street",42.447020,-71.251315,1.000000,"4fg",12/30/1899 0:00:00,12/30/1899 0:00:00,"MASS_SCHOOL",30.000000,-71.251315,42.447020,30.000000,0.000000,"4fg 30","9:13:29 AM","9:13:29 AM"
,201,"SCHOOL_STIMSON","School Street opposite Stimson Avenue",42.446442,-71.251497,1.000000,"4fg",12/30/1899 0:00:00,12/30/1899 0:00:00,"SCHOOL_STIMSON",31.000000,-71.251497,42.446442,31.000000,0.000000,"4fg 31","9:13:30 AM","9:13:30 AM"
,202,"SCHOOL_EASTERN","School Street opposite Eastern Avenue",42.444835,-71.251948,1.000000,"4fg",12/30/1899 0:00:00,12/30/1899 0:00:00,"SCHOOL_EASTERN",32.000000,-71.251948,42.444835,32.000000,0.000000,"4fg 32","9:13:31 AM","9:13:31 AM"
,203,"SCHOOL_ROOSEVELT","School Street @ Roosevelt Road",42.444170,-71.252066,1.000000,"4fg",12/30/1899 0:00:00,12/30/1899 0:00:00,"SCHOOL_ROOSEVELT",33.000000,-71.252066,42.444170,33.000000,0.000000,"4fg 33","9:14:32 AM","9:14:32 AM"
,204,"SCHOOL_ROLLING","School Street opposite Rolling Lane",42.441771,-71.251508,1.000000,"4fg",12/30/1899 0:00:00,12/30/1899 0:00:00,"SCHOOL_ROLLING",34.000000,-71.251508,42.441771,34.000000,0.000000,"4fg 34","9:14:33 AM","9:14:33 AM"
,205,"MARRETT_SCHOOL","Marrett Road opposite School Street",42.440425,-71.251540,1.000000,"4fg",12/30/1899 0:00:00,12/30/1899 0:00:00,"MARRETT_SCHOOL",35.000000,-71.251540,42.440425,35.000000,0.000000,"4fg 35","9:15:34 AM","9:15:34 AM"
,206,"MARRETT_LINCOLN","Marrett Road @ Lincoln Street",42.440109,-71.251025,1.000000,"4fg",12/30/1899 0:00:00,12/30/1899 0:00:00,"MARRETT_LINCOLN",36.000000,-71.251025,42.440109,36.000000,0.000000,"4fg 36","9:15:35 AM","9:15:35 AM"
,207,"MARRETT_COPPERSMYTH","Marrett Road opposite Coppersmyth Way",42.438937,-71.250414,1.000000,"4fg",12/30/1899 0:00:00,12/30/1899 0:00:00,"MARRETT_COPPERSMYTH",37.000000,-71.250414,42.438937,37.000000,0.000000,"4fg 37","9:15:36 AM","9:15:36 AM"
,208,"MARRETT_MIDDLE","Marrett Road @ Middle Street",42.435738,-71.248000,1.000000,"4fg",12/30/1899 0:00:00,12/30/1899 0:00:00,"MARRETT_MIDDLE",38.000000,-71.248000,42.435738,38.000000,0.000000,"4fg 38","9:15:37 AM","9:15:37 AM"
,209,"MARRETT_TUFTS","Marrett Road @ Tufts Road",42.435389,-71.246176,1.000000,"4fg",12/30/1899 0:00:00,12/30/1899 0:00:00,"MARRETT_TUFTS",39.000000,-71.246176,42.435389,39.000000,0.000000,"4fg 39","9:15:38 AM","9:15:38 AM"
,210,"MARRETT_SPRING","Marrett Road @ Spring Street",42.434218,-71.241756,1.000000,"4fg",12/30/1899 0:00:00,12/30/1899 0:00:00,"MARRETT_SPRING",40.000000,-71.241756,42.434218,40.000000,0.000000,"4fg 40","9:15:39 AM","9:15:39 AM"
,211,"SPRING_GRASSLAND","Spring Street opposite Grassland Street",42.433600,-71.242314,1.000000,"4fg",12/30/1899 0:00:00,12/30/1899 0:00:00,"SPRING_GRASSLAND",41.000000,-71.242314,42.433600,41.000000,0.000000,"4fg 41","9:16:40 AM","9:16:40 AM"
,212,"SPRING_HUDSON","Spring Street opposite Hudson Road",42.431953,-71.243826,1.000000,"4fg",12/30/1899 0:00:00,12/30/1899 0:00:00,"SPRING_HUDSON",42.000000,-71.243826,42.431953,42.000000,0.000000,"4fg 42","9:16:41 AM","9:16:41 AM"
,213,"SPRING_UNDERWOOD","Spring Street opposite Underwood Avenue",42.429846,-71.245629,1.000000,"4fg",12/30/1899 0:00:00,12/30/1899 0:00:00,"SPRING_UNDERWOOD",43.000000,-71.245629,42.429846,43.000000,0.000000,"4fg 43","9:17:42 AM","9:17:42 AM"
,214,"SPRING_WOODCLIFFE","Spring Street opposite Woodcliffe Road",42.428500,-71.246723,1.000000,"4fg",12/30/1899 0:00:00,12/30/1899 0:00:00,"SPRING_WOODCLIFFE",44.000000,-71.246723,42.428500,44.000000,0.000000,"4fg 44","9:17:43 AM","9:17:43 AM"
,215,"SPRING_HAYDEN","Spring Street @ Hayden Avenue",42.425031,-71.250414,1.000000,"4fg",12/30/1899 0:00:00,12/30/1899 0:00:00,"SPRING_HAYDEN",45.000000,-71.250414,42.425031,45.000000,0.000000,"4fg 45","9:18:44 AM","9:18:44 AM"
,216,"LAHEY","Lexington Lahey",42.422450,-71.236112,1.000000,"4fg",12/30/1899 0:00:00,12/30/1899 0:00:00,"LAHEY",46.000000,-71.236112,42.422450,46.000000,0.000000,"4fg 46","9:19:45 AM","9:19:45 AM"
,217,"HAYDEN_SPRING","Hayden Avenue @ Spring Street",42.425126,-71.250382,1.000000,"4fg",12/30/1899 0:00:00,12/30/1899 0:00:00,"HAYDEN_SPRING",53.000000,-71.250382,42.425126,53.000000,0.000000,"4fg 53","9:22:52 AM","9:22:52 AM"
,218,"SPRING_WOODCLIFFE2","Spring Street @ Woodcliffe Road",42.428358,-71.246659,1.000000,"4fg",12/30/1899 0:00:00,12/30/1899 0:00:00,"SPRING_WOODCLIFFE2",54.000000,-71.246659,42.428358,54.000000,0.000000,"4fg 54","9:23:53 AM","9:23:53 AM"
,219,"SPRING_UNDERWOOD2","Spring Street @ Underwood Avenue",42.429720,-71.245500,1.000000,"4fg",12/30/1899 0:00:00,12/30/1899 0:00:00,"SPRING_UNDERWOOD2",55.000000,-71.245500,42.429720,55.000000,0.000000,"4fg 55","9:24:54 AM","9:24:54 AM"
,220,"SPRING_HUDSON2","Spring Street @ Hudson Road",42.431858,-71.243719,1.000000,"4fg",12/30/1899 0:00:00,12/30/1899 0:00:00,"SPRING_HUDSON2",56.000000,-71.243719,42.431858,56.000000,0.000000,"4fg 56","9:24:55 AM","9:24:55 AM"
,221,"SPRING_GRASSLAND2","Spring Street @ Grassland Street",42.433489,-71.242174,1.000000,"4fg",12/30/1899 0:00:00,12/30/1899 0:00:00,"SPRING_GRASSLAND2",57.000000,-71.242174,42.433489,57.000000,0.000000,"4fg 57","9:25:56 AM","9:25:56 AM"
,222,"MARRETT_SPRING2","Marrett Road opposite Spring Street",42.434392,-71.241895,1.000000,"4fg",12/30/1899 0:00:00,12/30/1899 0:00:00,"MARRETT_SPRING2",58.000000,-71.241895,42.434392,58.000000,0.000000,"4fg 58","9:25:57 AM","9:25:57 AM"
,223,"MARRETT_TUFTS2","Marrett Road opposite Tufts Road",42.435548,-71.246208,1.000000,"4fg",12/30/1899 0:00:00,12/30/1899 0:00:00,"MARRETT_TUFTS2",59.000000,-71.246208,42.435548,59.000000,0.000000,"4fg 59","9:25:58 AM","9:25:58 AM"
,224,"MARRETT_MIDDLE2","Marrett Road opposite Middle Street",42.435880,-71.247882,1.000000,"4fg",12/30/1899 0:00:00,12/30/1899 0:00:00,"MARRETT_MIDDLE2",60.000000,-71.247882,42.435880,60.000000,0.000000,"4fg 60","9:26:59 AM","9:26:59 AM"
,225,"MARRETT_COPPERSMYTH2","Marrett Road @ Coppersmyth Way",42.438984,-71.250349,1.000000,"4fg",12/30/1899 0:00:00,12/30/1899 0:00:00,"MARRETT_COPPERSMYTH2",61.000000,-71.250349,42.438984,61.000000,0.000000,"4fg 61","9:27:01 AM","9:27:01 AM"
,300,"BEDFORD_REVERE","Bedford Street @ Revere St",42.456829,-71.235780,1.000000,"4fg",12/30/1899 0:00:00,12/30/1899 0:00:00,"BEDFORD_REVERE",8.000000,-71.235780,42.456829,8.000000,0.000000,"4fg 8","9:04:07 AM","9:04:07 AM"
,301,"BEDFORD_TEWKSBURY","Bedford Street @ Tewksbury St",42.454913,-71.234256,1.000000,"4fg",12/30/1899 0:00:00,12/30/1899 0:00:00,"BEDFORD_TEWKSBURY",6.000000,-71.234256,42.454913,6.000000,0.000000,"4fg 5","9:03:05 AM","9:03:05 AM"
,302,"BEDFORD_VAILLE","Bedford Street @ Vaille Ave",42.459773,-71.238591,1.000000,"4fg",12/30/1899 0:00:00,12/30/1899 0:00:00,"BEDFORD_VAILLE",10.000000,-71.238591,42.459773,10.000000,0.000000,"4fg 10","9:06:09 AM","9:06:09 AM"
,303,"BEDFORD_SUNNY","Bedford Street @ Sunny Knoll Ave",42.461119,-71.239342,1.000000,"4fg",12/30/1899 0:00:00,12/30/1899 0:00:00,"BEDFORD_SUNNY",11.000000,-71.239342,42.461119,11.000000,0.000000,"4fg 11","9:06:10 AM","9:06:10 AM"
,0,"CONCORD_FIELD","Concord @ Field",42.420290,-71.243165,0.000000,"4fg",12/30/1899 0:00:00,12/30/1899 0:00:00,"CONCORD_FIELD",51.000000,-71.243165,42.420290,51.000000,0.000000,"4fg 51","9:21:50 AM","9:21:50 AM"
,0,"CONCORD_SPRING","Concord @ Spring",42.421032,-71.251368,0.000000,"4fg",12/30/1899 0:00:00,12/30/1899 0:00:00,"CONCORD_SPRING",52.000000,-71.251368,42.421032,52.000000,0.000000,"4fg 52","9:22:51 AM","9:22:51 AM"
,0,"CONCORD_OLD_SHAD","Concord @ Old Shade",42.419630,-71.241690,0.000000,"4fg",12/30/1899 0:00:00,12/30/1899 0:00:00,"CONCORD_OLD_SHAD",50.000000,-71.241690,42.419630,50.000000,0.000000,"4fg 50","9:21:49 AM","9:21:49 AM"
,0,"CONCORD_BARBERRY","Concord @ Barberry",42.419424,-71.240099,0.000000,"4fg",12/30/1899 0:00:00,12/30/1899 0:00:00,"CONCORD_BARBERRY",49.000000,-71.240099,42.419424,49.000000,0.000000,"4fg 49","9:21:48 AM","9:21:48 AM"
,0,"WALTHAM_CONCORD","Waltham @ Concord",42.418445,-71.231715,0.000000,"4fg",12/30/1899 0:00:00,12/30/1899 0:00:00,"WALTHAM_CONCORD",48.000000,-71.231715,42.418445,48.000000,0.000000,"4fg 48","9:21:47 AM","9:21:47 AM"
,0,"WALTHAM_HAYDEN","Waltham @ Hayden",42.423043,-71.231582,0.000000,"4fg",12/30/1899 0:00:00,12/30/1899 0:00:00,"WALTHAM_HAYDEN",47.000000,-71.231582,42.423043,47.000000,0.000000,"4fg 47","9:21:46 AM","9:21:46 AM"
,40,"DEPOT","Depot Square",42.448220,-71.228730,1.000000,"4fg",12/30/1899 0:00:00,12/30/1899 0:00:00,"DEPOT",1.000000,-71.228730,42.448220,1.000000,0.000000,"4fg 1","9:49:46 AM","9:49:46 AM"
,234,"MASSACHUSETTS_HARRINGTON","Massachusetts Avenue opposite Harrington Road",42.449482,-71.232604,1.000000,"4fg",12/30/1899 0:00:00,12/30/1899 0:00:00,"MASSACHUSETTS_HARRINGTON",71.000000,-71.232604,42.449482,71.000000,0.000000,"4fg 71","9:29:11 AM","9:29:11 AM"
,233,"MASS_FOREST","Massachusetts Avenue @ Forest Street",42.449403,-71.234192,1.000000,"4fg",12/30/1899 0:00:00,12/30/1899 0:00:00,"MASS_FOREST",70.000000,-71.234192,42.449403,70.000000,0.000000,"4fg 70","9:29:10 AM","9:29:10 AM"
,232,"MASS_PARKER","Massachusetts Avenue @ Parker Street!",42.449261,-71.236187,1.000000,"4fg",12/30/1899 0:00:00,12/30/1899 0:00:00,"MASS_PARKER",69.000000,-71.236187,42.449261,69.000000,0.000000,"4fg 69","9:29:09 AM","9:29:09 AM"
,231,"WORTHEN_MASS","Worthen Road @ Massachusetts Avenue",42.449071,-71.237078,1.000000,"4fg",12/30/1899 0:00:00,12/30/1899 0:00:00,"WORTHEN_MASS",68.000000,-71.237078,42.449071,68.000000,0.000000,"4fg 68","9:29:08 AM","9:29:08 AM"
,230,"WORTHEN_LINCOLN","Worthen Road opposite Lincoln Street",42.448176,-71.237078,1.000000,"4fg",12/30/1899 0:00:00,12/30/1899 0:00:00,"WORTHEN_LINCOLN",67.000000,-71.237078,42.448176,67.000000,0.000000,"4fg 67","9:29:07 AM","9:29:07 AM"
,229,"LINCOLN_HASTINGS","Lincoln Street opposite Hastings Road",42.447677,-71.239041,1.000000,"4fg",12/30/1899 0:00:00,12/30/1899 0:00:00,"LINCOLN_HASTINGS",66.000000,-71.239041,42.447677,66.000000,0.000000,"4fg 66","9:29:06 AM","9:29:06 AM"
,228,"LINCOLN_AUDUBON","Lincoln Street opposite Audubon Road",42.446925,-71.239588,1.000000,"4fg",12/30/1899 0:00:00,12/30/1899 0:00:00,"LINCOLN_AUDUBON",65.000000,-71.239588,42.446925,65.000000,0.000000,"4fg 65","9:29:05 AM","9:29:05 AM"
,227,"LINCOLN_LINCOLN","Lincoln Street opposite Lincoln Terrace",42.445952,-71.240447,1.000000,"4fg",12/30/1899 0:00:00,12/30/1899 0:00:00,"LINCOLN_LINCOLN",64.000000,-71.240447,42.445952,64.000000,0.000000,"4fg 64","9:28:04 AM","9:28:04 AM"
,226,"LINCOLN_MIDDLEBY","Lincoln Street @ Middleby Road",42.441288,-71.245811,1.000000,"4fg",12/30/1899 0:00:00,12/30/1899 0:00:00,"LINCOLN_MIDDLEBY",63.000000,-71.245811,42.441288,63.000000,0.000000,"4fg 63","9:27:03 AM","9:27:03 AM"
,206,"MARRETT_LINCOLN","Marrett Road @ Lincoln Street",42.440109,-71.251025,1.000000,"4fg",12/30/1899 0:00:00,12/30/1899 0:00:00,"MARRETT_LINCOLN",62.000000,-71.251025,42.440109,62.000000,0.000000,"4fg 62","9:27:02 AM","9:27:02 AM"
,145,"DEPOT","Depot Square",42.448211,-71.228796,1.000000,"3",12/30/1899 0:00:00,12/30/1899 0:00:00,"DEPOT",1.000000,-71.228796,42.448211,0.000000,0.000000,"3 1","8:29:04 AM","8:29:04 AM"
,145,"DEPOT","Depot Square",42.448211,-71.228796,1.000000,"3",12/30/1899 0:00:00,12/30/1899 0:00:00,"DEPOT",45.000000,-71.228796,42.448211,0.000000,0.000000,"3 45","7:47:56 AM","7:47:56 AM"
,3,"MASS_GRANT","Massachusetts Ave @ Grant Street",42.446751,-71.225699,1.000000,"3",12/30/1899 0:00:00,12/30/1899 0:00:00,"MASS_GRANT",2.000000,-71.225699,42.446751,0.000000,0.000000,"3 2","8:30:05 AM","8:30:05 AM"
,134,"MASS_WINTHROP2","Massachusetts Avenue opposite Winthrop Road",42.445999,-71.222369,1.000000,"3",12/30/1899 0:00:00,12/30/1899 0:00:00,"MASS_WINTHROP2",43.000000,-71.222369,42.445999,0.000000,0.000000,"3 43","7:47:55 AM","7:47:55 AM"
,144,"TOWN","Town Hall",42.446490,-71.224101,1.000000,"3",12/30/1899 0:00:00,12/30/1899 0:00:00,"TOWN",44.000000,-71.224101,42.446490,0.000000,0.000000,"3 44","7:47:55 AM","7:47:55 AM"
,87,"MASS_SLOCUM","Massachusetts Avenue @ Slocum Road",42.444764,-71.220974,1.000000,"3",12/30/1899 0:00:00,12/30/1899 0:00:00,"MASS_SLOCUM",42.000000,-71.220974,42.444764,0.000000,0.000000,"3 42","7:47:55 AM","7:47:55 AM"
,136,"MASS_BLOOMFIELD2","Massachusetts Avenue opposite Bloomfield Street",42.443521,-71.219129,1.000000,"3",12/30/1899 0:00:00,12/30/1899 0:00:00,"MASS_BLOOMFIELD2",41.000000,-71.219129,42.443521,0.000000,0.000000,"3 41","7:47:55 AM","7:47:55 AM"
,137,"MASS_PERCY2","Massachusetts Avenue opposite Percy Road",42.441882,-71.216693,1.000000,"3",12/30/1899 0:00:00,12/30/1899 0:00:00,"MASS_PERCY2",40.000000,-71.216693,42.441882,0.000000,0.000000,"3 40","7:46:54 AM","7:46:54 AM"
,138,"MASS_PELHAM2","Massachusetts Avenue opposite Pelham Road",42.439974,-71.213775,1.000000,"1",12/30/1899 0:00:00,12/30/1899 0:00:00,"MASS_PELHAM2",63.000000,-71.213775,42.439974,0.000000,0.000000,"1 63","7:48:03 AM","7:48:03 AM"
,139,"MASS_MARRETT2","Massachusetts Avenue @ Marrett Road",42.436047,-71.212294,1.000000,"3",12/30/1899 0:00:00,12/30/1899 0:00:00,"MASS_MARRETT2",38.000000,-71.212294,42.436047,0.000000,0.000000,"3 38","7:46:54 AM","7:46:54 AM"
,177,"MAPLE_MASS","Maple Street @ Massachusetts Avenue",42.435279,-71.210932,1.000000,"3",12/30/1899 0:00:00,12/30/1899 0:00:00,"MAPLE_MASS",37.000000,-71.210932,42.435279,0.000000,0.000000,"3 37","7:45:54 AM","7:45:54 AM"
,154,"WOBURN_LOWELL","Woburn Street @ Lowell Street",42.449150,-71.199237,1.000000,"3c",12/30/1899 0:00:00,12/30/1899 0:00:00,"WOBURN_LOWELL",15.000000,-71.199237,42.449150,15.000000,0.000000,"3c 15","9:34:14 AM","9:34:14 AM"
,155,"LOWELL_PEARTREE","Lowell Street opposite Peartree Drive",42.447171,-71.197810,1.000000,"3c",12/30/1899 0:00:00,12/30/1899 0:00:00,"LOWELL_PEARTREE",16.000000,-71.197810,42.447171,16.000000,0.000000,"3c 16","9:35:15 AM","9:35:15 AM"
,156,"LOWELL_HARRINGTON","Lowell Street @ Harrington School",42.445722,-71.197220,1.000000,"3c",12/30/1899 0:00:00,12/30/1899 0:00:00,"LOWELL_HARRINGTON",17.000000,-71.197220,42.445722,17.000000,0.000000,"3c 17","9:36:16 AM","9:36:16 AM"
,157,"LOWELL_WINCHESTER","Lowell Street @ Winchester Drive",42.444558,-71.196555,1.000000,"3c",12/30/1899 0:00:00,12/30/1899 0:00:00,"LOWELL_WINCHESTER",18.000000,-71.196555,42.444558,18.000000,0.000000,"3c 18","9:36:17 AM","9:36:17 AM"
,158,"WINCHESTER_TYLER","Winchester Drive @ Tyler Road",42.444804,-71.195557,1.000000,"3c",12/30/1899 0:00:00,12/30/1899 0:00:00,"WINCHESTER_TYLER",19.000000,-71.195557,42.444804,19.000000,0.000000,"3c 19","9:36:18 AM","9:36:18 AM"
,159,"WINCHESTER_FISKE","Winchester Drive @ Fiske Road",42.445611,-71.191545,1.000000,"3c",12/30/1899 0:00:00,12/30/1899 0:00:00,"WINCHESTER_FISKE",20.000000,-71.191545,42.445611,20.000000,0.000000,"3c 20","9:37:19 AM","9:37:19 AM"
,160,"WINCHESTER_TYLER2","Winchester Drive opposite Tyler Road",42.444812,-71.187017,1.000000,"3c",12/30/1899 0:00:00,12/30/1899 0:00:00,"WINCHESTER_TYLER2",21.000000,-71.187017,42.444812,21.000000,0.000000,"3c 21","9:38:20 AM","9:38:20 AM"
,161,"WINCHESTER_RUSSELL","Winchester Drive @ Russell Road",42.444257,-71.184421,1.000000,"3c",12/30/1899 0:00:00,12/30/1899 0:00:00,"WINCHESTER_RUSSELL",22.000000,-71.184421,42.444257,22.000000,0.000000,"3c 22","9:38:21 AM","9:38:21 AM"
,162,"RUSELL_WHIPPLE","Russell Road @ Whipple Road",42.441732,-71.186212,1.000000,"3c",12/30/1899 0:00:00,12/30/1899 0:00:00,"RUSELL_WHIPPLE",23.000000,-71.186212,42.441732,23.000000,0.000000,"3c 23","9:39:22 AM","9:39:22 AM"
,163,"WHIPPLE_FISKE","Whipple Road @ Fiske Road",42.441312,-71.187790,1.000000,"3c",12/30/1899 0:00:00,12/30/1899 0:00:00,"WHIPPLE_FISKE",24.000000,-71.187790,42.441312,24.000000,0.000000,"3c 24","9:39:23 AM","9:39:23 AM"
,164,"WHIPPLE_LOCKE","Whipple Road @ Locke Lane",42.440164,-71.188948,1.000000,"3c",12/30/1899 0:00:00,12/30/1899 0:00:00,"WHIPPLE_LOCKE",25.000000,-71.188948,42.440164,25.000000,0.000000,"3c 25","9:40:24 AM","9:40:24 AM"
,165,"WHIPPLE_WHEELER","Whipple Road @ Wheeler Road",42.439222,-71.190086,1.000000,"3c",12/30/1899 0:00:00,12/30/1899 0:00:00,"WHIPPLE_WHEELER",26.000000,-71.190086,42.439222,26.000000,0.000000,"3c 26","9:40:25 AM","9:40:25 AM"
,166,"WHIPPLE_LOWELL","Whipple Road @ Lowell Street",42.438462,-71.191019,1.000000,"3c",12/30/1899 0:00:00,12/30/1899 0:00:00,"WHIPPLE_LOWELL",27.000000,-71.191019,42.438462,27.000000,0.000000,"3c 27","9:40:26 AM","9:40:26 AM"
,167,"LOWELL_SANDERSON","Lowell Street opposite Sanderson Road",42.440148,-71.192371,1.000000,"3c",12/30/1899 0:00:00,12/30/1899 0:00:00,"LOWELL_SANDERSON",28.000000,-71.192371,42.440148,28.000000,0.000000,"3c 28","9:41:27 AM","9:41:27 AM"
,168,"LOWELL_BRYANT","Lowell Street @ Bryant Road",42.442626,-71.194238,1.000000,"3c",12/30/1899 0:00:00,12/30/1899 0:00:00,"LOWELL_BRYANT",29.000000,-71.194238,42.442626,29.000000,0.000000,"3c 29","9:41:28 AM","9:41:28 AM"
,169,"BRYANT_SANDERSON","Bryant Road @ Sanderson Road",42.442262,-71.195461,1.000000,"3c",12/30/1899 0:00:00,12/30/1899 0:00:00,"BRYANT_SANDERSON",30.000000,-71.195461,42.442262,30.000000,0.000000,"3c 30","9:42:29 AM","9:42:29 AM"
,170,"BRYANT_SANDERSON2","Bryant Road @ Sanderson Road",42.440402,-71.197210,1.000000,"3c",12/30/1899 0:00:00,12/30/1899 0:00:00,"BRYANT_SANDERSON2",31.000000,-71.197210,42.440402,31.000000,0.000000,"3c 31","9:43:30 AM","9:43:30 AM"
,171,"BRYANT_VILLAGE","Bryant Road @ Village Circle",42.438818,-71.198379,1.000000,"3c",12/30/1899 0:00:00,12/30/1899 0:00:00,"BRYANT_VILLAGE",32.000000,-71.198379,42.438818,32.000000,0.000000,"3c 32","9:43:31 AM","9:43:31 AM"
,172,"BRYANT_EMERSON","Bryant Road @ Emerson Gardens Road",42.437955,-71.198894,1.000000,"3c",12/30/1899 0:00:00,12/30/1899 0:00:00,"BRYANT_EMERSON",33.000000,-71.198894,42.437955,33.000000,0.000000,"3c 33","9:43:32 AM","9:43:32 AM"
,173,"EMERSON_MAPLE","Emerson Gardens Road @ Maple Street",42.439808,-71.203196,1.000000,"3c",12/30/1899 0:00:00,12/30/1899 0:00:00,"EMERSON_MAPLE",34.000000,-71.203196,42.439808,34.000000,0.000000,"3c 34","9:44:33 AM","9:44:33 AM"
,174,"MAPLE_SOLOMON","Maple Street @ Solomon Pierce Road",42.439024,-71.204591,1.000000,"3c",12/30/1899 0:00:00,12/30/1899 0:00:00,"MAPLE_SOLOMON",35.000000,-71.204591,42.439024,35.000000,0.000000,"3c 35","9:44:34 AM","9:44:34 AM"
,175,"MAPLE_CARNEGIE","Maple Street @ Carnegie Place",42.438192,-71.205718,1.000000,"3c",12/30/1899 0:00:00,12/30/1899 0:00:00,"MAPLE_CARNEGIE",36.000000,-71.205718,42.438192,36.000000,0.000000,"3c 36","9:44:35 AM","9:44:35 AM"
,176,"MAPLE_INGLESIDE","Maple Street @ Ingleside Road",42.436260,-71.208217,1.000000,"3c",12/30/1899 0:00:00,12/30/1899 0:00:00,"MAPLE_INGLESIDE",37.000000,-71.208217,42.436260,37.000000,0.000000,"3c 37","9:45:36 AM","9:45:36 AM"
,145,"DEPOT","Depot Square",42.448211,-71.228796,1.000000,"3c",12/30/1899 0:00:00,12/30/1899 0:00:00,"DEPOT",46.000000,-71.228796,42.448211,46.000000,0.000000,"3c 46","9:48:45 AM","9:48:45 AM"
,134,"MASS_WINTHROP2","Massachusetts Avenue opposite Winthrop Road",42.445999,-71.222369,1.000000,"3c",12/30/1899 0:00:00,12/30/1899 0:00:00,"MASS_WINTHROP2",44.000000,-71.222369,42.445999,44.000000,0.000000,"3c 44","9:48:43 AM","9:48:43 AM"
,144,"TOWN","Town Hall",42.446490,-71.224101,1.000000,"3c",12/30/1899 0:00:00,12/30/1899 0:00:00,"TOWN",45.000000,-71.224101,42.446490,45.000000,0.000000,"3c 45","9:48:44 AM","9:48:44 AM"
,87,"MASS_SLOCUM","Massachusetts Avenue @ Slocum Road",42.444764,-71.220974,1.000000,"3c",12/30/1899 0:00:00,12/30/1899 0:00:00,"MASS_SLOCUM",43.000000,-71.220974,42.444764,43.000000,0.000000,"3c 43","9:48:42 AM","9:48:42 AM"
,136,"MASS_BLOOMFIELD2","Massachusetts Avenue opposite Bloomfield Street",42.443521,-71.219129,1.000000,"3c",12/30/1899 0:00:00,12/30/1899 0:00:00,"MASS_BLOOMFIELD2",42.000000,-71.219129,42.443521,42.000000,0.000000,"3c 42","9:48:41 AM","9:48:41 AM"
,137,"MASS_PERCY2","Massachusetts Avenue opposite Percy Road",42.441882,-71.216693,1.000000,"3c",12/30/1899 0:00:00,12/30/1899 0:00:00,"MASS_PERCY2",41.000000,-71.216693,42.441882,41.000000,0.000000,"3c 41","9:47:40 AM","9:47:40 AM"
,138,"MASS_PELHAM2","Massachusetts Avenue opposite Pelham Road",42.439974,-71.213775,1.000000,"3c",12/30/1899 0:00:00,12/30/1899 0:00:00,"MASS_PELHAM2",40.000000,-71.213775,42.439974,40.000000,0.000000,"3c 40","9:47:39 AM","9:47:39 AM"
,139,"MASS_MARRETT2","Massachusetts Avenue @ Marrett Road",42.436047,-71.212294,1.000000,"3c",12/30/1899 0:00:00,12/30/1899 0:00:00,"MASS_MARRETT2",39.000000,-71.212294,42.436047,39.000000,0.000000,"3c 39","9:47:38 AM","9:47:38 AM"
,177,"MAPLE_MASS","Maple Street @ Massachusetts Avenue",42.435279,-71.210932,1.000000,"3c",12/30/1899 0:00:00,12/30/1899 0:00:00,"MAPLE_MASS",38.000000,-71.210932,42.435279,38.000000,0.000000,"3c 38","9:46:37 AM","9:46:37 AM"
,145,"WOBURN_HAYES","Woburn Street opposite Hayes Avenue",42.446292,-71.220716,1.000000,"3c",12/30/1899 0:00:00,12/30/1899 0:00:00,"WOBURN_HAYES",4.000000,-71.220716,42.446292,4.000000,0.000000,"3c 4","9:32:03 AM","9:32:03 AM"
,146,"WOBURN_COTTAGE","Woburn Street @ Cottage Street",42.446490,-71.218302,1.000000,"3c",12/30/1899 0:00:00,12/30/1899 0:00:00,"WOBURN_COTTAGE",5.000000,-71.218302,42.446490,5.000000,0.000000,"3c 5","9:33:04 AM","9:33:04 AM"
,147,"WOBURN_MANLEY","Woburn Street opposite Manley Court",42.446672,-71.216554,1.000000,"3c",12/30/1899 0:00:00,12/30/1899 0:00:00,"WOBURN_MANLEY",6.000000,-71.216554,42.446672,6.000000,0.000000,"3c 6","9:33:05 AM","9:33:05 AM"
,148,"WOBURN_HOWARD","Woburn Street @ Howard Munroe Place",42.446862,-71.213979,1.000000,"3c",12/30/1899 0:00:00,12/30/1899 0:00:00,"WOBURN_HOWARD",7.000000,-71.213979,42.446862,7.000000,0.000000,"3c 7","9:33:06 AM","9:33:06 AM"
,149,"WOBURN_UTICA","Woburn Street opposite Utica Street",42.446941,-71.212573,1.000000,"3c",12/30/1899 0:00:00,12/30/1899 0:00:00,"WOBURN_UTICA",8.000000,-71.212573,42.446941,8.000000,0.000000,"3c 8","9:33:07 AM","9:33:07 AM"
,150,"WOBURN_WEBB","Woburn Street opposite Webb Street",42.447464,-71.207295,1.000000,"3c",12/30/1899 0:00:00,12/30/1899 0:00:00,"WOBURN_WEBB",9.000000,-71.207295,42.447464,9.000000,0.000000,"3c 9","9:33:08 AM","9:33:08 AM"
,151,"WOBURN_SOLOMON","Woburn Street @ Solomon Pierce Road",42.447891,-71.204902,1.000000,"3c",12/30/1899 0:00:00,12/30/1899 0:00:00,"WOBURN_SOLOMON",10.000000,-71.204902,42.447891,10.000000,0.000000,"3c 10","9:34:09 AM","9:34:09 AM"
,152,"WOBURN_LEONARD","Woburn Street opposite Leonard Road",42.448065,-71.204119,1.000000,"3c",12/30/1899 0:00:00,12/30/1899 0:00:00,"WOBURN_LEONARD",11.000000,-71.204119,42.448065,11.000000,0.000000,"3c 11","9:34:10 AM","9:34:10 AM"
,153,"WOBURN_RUMFORD","Woburn Street opposite Rumford Road",42.448414,-71.202488,1.000000,"3c",12/30/1899 0:00:00,12/30/1899 0:00:00,"WOBURN_RUMFORD",12.000000,-71.202488,42.448414,12.000000,0.000000,"3c 12","9:34:11 AM","9:34:11 AM"
,178,"WOBURN_COUNTRYSIDE","Woburn Street @ Countryside Village",42.448905,-71.200675,1.000000,"3c",12/30/1899 0:00:00,12/30/1899 0:00:00,"WOBURN_COUNTRYSIDE",13.000000,-71.200675,42.448905,13.000000,0.000000,"3c 13","9:34:12 AM","9:34:12 AM"
,299,"MASS_WOBURN","Massachusetts Ave @ Woburn St",42.446157,-71.222819,1.000000,"3c",12/30/1899 0:00:00,12/30/1899 0:00:00,"MASS_WOBURN",3.000000,-71.222819,42.446157,3.000000,0.000000,"3c 3","9:31:02 AM","9:31:02 AM"
,145,"DEPOT","Depot Square",42.448211,-71.228796,1.000000,"3c",12/30/1899 0:00:00,12/30/1899 0:00:00,"DEPOT",1.000000,-71.228796,42.448211,1.000000,0.000000,"3c 1","9:29:06 AM","9:29:06 AM"
,3,"MASS_GRANT","Massachusetts Ave @ Grant Street",42.446751,-71.225699,1.000000,"3c",12/30/1899 0:00:00,12/30/1899 0:00:00,"MASS_GRANT",2.000000,-71.225699,42.446751,2.000000,0.000000,"3c 2","9:30:01 AM","9:30:01 AM"
,237,"MASS_HARRINGTON2","Massachusetts Avenue @ Harrington Street",42.449641,-71.232819,1.000000,"2",12/30/1899 0:00:00,12/30/1899 0:00:00,"MASS_HARRINGTON2",2.000000,-71.232819,42.449641,0.000000,0.000000,"2 2","8:00:02 AM","8:00:02 AM"
,238,"MASS_FOREST2","Massachusetts Avenue opposite Forest Street",42.449562,-71.234127,1.000000,"2",12/30/1899 0:00:00,12/30/1899 0:00:00,"MASS_FOREST2",3.000000,-71.234127,42.449562,0.000000,0.000000,"2 3","8:01:03 AM","8:01:03 AM"
,239,"MASS_PARKER!","Massachusetts Avenue opposite Parker Street!",42.449387,-71.236273,1.000000,"2",12/30/1899 0:00:00,12/30/1899 0:00:00,"MASS_PARKER!",4.000000,-71.236273,42.449387,0.000000,0.000000,"2 4","8:01:04 AM","8:01:04 AM"
,240,"MASS_WORTHEN2","Massachusetts Avenue @ Worthen Road",42.449229,-71.237046,1.000000,"2",12/30/1899 0:00:00,12/30/1899 0:00:00,"MASS_WORTHEN2",5.000000,-71.237046,42.449229,0.000000,0.000000,"2 5","8:02:05 AM","8:02:05 AM"
,241,"WORTHEN_LINCOLN2","Worthen Road @ Lincoln Street",42.448232,-71.237303,1.000000,"2",12/30/1899 0:00:00,12/30/1899 0:00:00,"WORTHEN_LINCOLN2",6.000000,-71.237303,42.448232,0.000000,0.000000,"2 6","8:02:06 AM","8:02:06 AM"
,242,"WORTHEN","Worthen Road",42.445920,-71.237732,1.000000,"2",12/30/1899 0:00:00,12/30/1899 0:00:00,"WORTHEN",7.000000,-71.237732,42.445920,0.000000,0.000000,"2 7","8:02:07 AM","8:02:07 AM"
,243,"WORTHEN_BASKIN","Worthen Road @ Baskin Road",42.441827,-71.233977,1.000000,"2",12/30/1899 0:00:00,12/30/1899 0:00:00,"WORTHEN_BASKIN",8.000000,-71.233977,42.441827,0.000000,0.000000,"2 8","8:03:08 AM","8:03:08 AM"
,244,"WORTHEN_BUSHNELL","Worthen Road @ Bushnell Drive",42.441209,-71.233216,1.000000,"2",12/30/1899 0:00:00,12/30/1899 0:00:00,"WORTHEN_BUSHNELL",9.000000,-71.233216,42.441209,0.000000,0.000000,"2 9","8:03:09 AM","8:03:09 AM"
,245,"WORTHEN_WALTHAM","Worthen Road @ Waltham Street",42.440837,-71.232636,1.000000,"2",12/30/1899 0:00:00,12/30/1899 0:00:00,"WORTHEN_WALTHAM",10.000000,-71.232636,42.440837,0.000000,0.000000,"2 10","8:04:10 AM","8:04:10 AM"
,246,"WORTHEN_CAPTAIN","Worthen Road @ Captain Parker Arms Street",42.439594,-71.230866,1.000000,"2",12/30/1899 0:00:00,12/30/1899 0:00:00,"WORTHEN_CAPTAIN",11.000000,-71.230866,42.439594,0.000000,0.000000,"2 11","8:04:11 AM","8:04:11 AM"
,247,"WORTHEN_RYDER","Worthen Road @ Ryder Lane",42.439151,-71.230276,1.000000,"2",12/30/1899 0:00:00,12/30/1899 0:00:00,"WORTHEN_RYDER",12.000000,-71.230276,42.439151,0.000000,0.000000,"2 12","8:05:12 AM","8:05:12 AM"
,248,"WORTHEN_KENDALL","Worthen Road @ Kendall Road",42.438264,-71.228870,1.000000,"2",12/30/1899 0:00:00,12/30/1899 0:00:00,"WORTHEN_KENDALL",13.000000,-71.228870,42.438264,0.000000,0.000000,"2 13","8:05:13 AM","8:05:13 AM"
,249,"KENDALL_SHERBURNE","Kendall Road opposite Sherburne Road",42.437488,-71.229192,1.000000,"2",12/30/1899 0:00:00,12/30/1899 0:00:00,"KENDALL_SHERBURNE",14.000000,-71.229192,42.437488,0.000000,0.000000,"2 14","8:05:14 AM","8:05:14 AM"
,250,"KENDALL_APOLLO","Kendall Road @ Apollo Circle",42.435857,-71.230383,1.000000,"2",12/30/1899 0:00:00,12/30/1899 0:00:00,"KENDALL_APOLLO",15.000000,-71.230383,42.435857,0.000000,0.000000,"2 15","8:05:15 AM","8:05:15 AM"
,251,"KENDALL_MARRETT","Marrett Road @ Kendal Road",42.434598,-71.231166,1.000000,"2",12/30/1899 0:00:00,12/30/1899 0:00:00,"KENDALL_MARRETT",16.000000,-71.231166,42.434598,0.000000,0.000000,"2 16","8:06:16 AM","8:06:16 AM"
,252,"MARRETT_MALT","Marrett Road opposite Malt Lane",42.433766,-71.228066,1.000000,"2",12/30/1899 0:00:00,12/30/1899 0:00:00,"MARRETT_MALT",17.000000,-71.228066,42.433766,0.000000,0.000000,"2 17","8:07:17 AM","8:07:17 AM"
,253,"MARRETT_BACON","Marrett Road @ Bacon Street",42.434130,-71.222390,1.000000,"2",12/30/1899 0:00:00,12/30/1899 0:00:00,"MARRETT_BACON",18.000000,-71.222390,42.434130,0.000000,0.000000,"2 18","8:08:18 AM","8:08:18 AM"
,254,"MARRETT_TRICORNE","Marrett Road opposite Tricorne Road",42.434447,-71.218431,1.000000,"2",12/30/1899 0:00:00,12/30/1899 0:00:00,"MARRETT_TRICORNE",19.000000,-71.218431,42.434447,0.000000,0.000000,"2 19","8:08:19 AM","8:08:19 AM"
,255,"MARRETT_FOLLEN","Marrett Road @ Follen Road",42.434796,-71.216865,1.000000,"2",12/30/1899 0:00:00,12/30/1899 0:00:00,"MARRETT_FOLLEN",20.000000,-71.216865,42.434796,0.000000,0.000000,"2 20","8:08:20 AM","8:08:20 AM"
,256,"FOLLEN_PADDOCK","Follen Road @ Paddock Lane",42.434368,-71.216543,1.000000,"2",12/30/1899 0:00:00,12/30/1899 0:00:00,"FOLLEN_PADDOCK",21.000000,-71.216543,42.434368,0.000000,0.000000,"2 21","8:08:21 AM","8:08:21 AM"
,257,"FOLLEN_RICHARD","Follen Road opposite Richard Road",42.432895,-71.215588,1.000000,"2",12/30/1899 0:00:00,12/30/1899 0:00:00,"FOLLEN_RICHARD",22.000000,-71.215588,42.432895,0.000000,0.000000,"2 22","8:09:22 AM","8:09:22 AM"
,258,"FOLLEN_LOCUST","Follen Road @ Locust Avenue",42.431343,-71.215717,1.000000,"2",12/30/1899 0:00:00,12/30/1899 0:00:00,"FOLLEN_LOCUST",23.000000,-71.215717,42.431343,0.000000,0.000000,"2 23","8:09:23 AM","8:09:23 AM"
,259,"FOLLEN_DAWES","Follen Road @ Dawes Road",42.429609,-71.214987,1.000000,"2",12/30/1899 0:00:00,12/30/1899 0:00:00,"FOLLEN_DAWES",24.000000,-71.214987,42.429609,0.000000,0.000000,"2 24","8:10:24 AM","8:10:24 AM"
,260,"DAWES_BUCKMAN","Dawes Road @ Buckman Drive",42.429300,-71.215813,1.000000,"2",12/30/1899 0:00:00,12/30/1899 0:00:00,"DAWES_BUCKMAN",25.000000,-71.215813,42.429300,0.000000,0.000000,"2 25","8:10:25 AM","8:10:25 AM"
,261,"BUCKMAN_SUNSET","Buckman Drive opposite Sunset Ridge",42.426972,-71.214569,1.000000,"2",12/30/1899 0:00:00,12/30/1899 0:00:00,"BUCKMAN_SUNSET",26.000000,-71.214569,42.426972,0.000000,0.000000,"2 26","8:10:26 AM","8:10:26 AM"
,262,"BUCKMAN_PHILLIP","Buckman Drive @ Phillip Road",42.426322,-71.214322,1.000000,"2",12/30/1899 0:00:00,12/30/1899 0:00:00,"BUCKMAN_PHILLIP",27.000000,-71.214322,42.426322,0.000000,0.000000,"2 27","8:10:27 AM","8:10:27 AM"
,263,"PHILLIP_LANTERN","Phillip Road @ Lantern Lane",42.426037,-71.215459,1.000000,"2",12/30/1899 0:00:00,12/30/1899 0:00:00,"PHILLIP_LANTERN",28.000000,-71.215459,42.426037,0.000000,0.000000,"2 28","8:11:28 AM","8:11:28 AM"
,264,"PHILLIP_ROCKVILLE","Phillip Road @ Rockville Avenue",42.423717,-71.216350,1.000000,"2",12/30/1899 0:00:00,12/30/1899 0:00:00,"PHILLIP_ROCKVILLE",29.000000,-71.216350,42.423717,0.000000,0.000000,"2 29","8:11:29 AM","8:11:29 AM"
,265,"PHILLIP_GOFFE","Phillip Road @ Goffe Road",42.422933,-71.216049,1.000000,"2",12/30/1899 0:00:00,12/30/1899 0:00:00,"PHILLIP_GOFFE",30.000000,-71.216049,42.422933,0.000000,0.000000,"2 30","8:11:30 AM","8:11:30 AM"
,266,"PHILLIP_DUDLEY","Phillip Road @ Dudley Road",42.421151,-71.215277,1.000000,"2",12/30/1899 0:00:00,12/30/1899 0:00:00,"PHILLIP_DUDLEY",31.000000,-71.215277,42.421151,0.000000,0.000000,"2 31","8:12:31 AM","8:12:31 AM"
,267,"WORTHEN_PHILLIP","Worthen Road East opposite Phillip Road",42.419440,-71.214397,1.000000,"2",12/30/1899 0:00:00,12/30/1899 0:00:00,"WORTHEN_PHILLIP",32.000000,-71.214397,42.419440,0.000000,0.000000,"2 32","8:12:32 AM","8:12:32 AM"
,268,"WORTHEN_PLEASANT","Pleasant Street opposite Worthen Road East",42.419163,-71.213432,1.000000,"2",12/30/1899 0:00:00,12/30/1899 0:00:00,"WORTHEN_PLEASANT",33.000000,-71.213432,42.419163,0.000000,0.000000,"2 33","8:13:33 AM","8:13:33 AM"
,269,"PLEASANT_2","Pleasant Street @ Route 2",42.418688,-71.214451,1.000000,"2",12/30/1899 0:00:00,12/30/1899 0:00:00,"PLEASANT_2",34.000000,-71.214451,42.418688,0.000000,0.000000,"2 34","8:14:34 AM","8:14:34 AM"
,270,"PLEASANT_22","Pleasant Street @ Route 2",42.417666,-71.216715,1.000000,"2",12/30/1899 0:00:00,12/30/1899 0:00:00,"PLEASANT_22",35.000000,-71.216715,42.417666,0.000000,0.000000,"2 35","8:14:35 AM","8:14:35 AM"
,271,"PLEASANT_STEARNS","Pleasant Street @ Stearns Road",42.417064,-71.218184,1.000000,"2",12/30/1899 0:00:00,12/30/1899 0:00:00,"PLEASANT_STEARNS",36.000000,-71.218184,42.417064,0.000000,0.000000,"2 36","8:14:36 AM","8:14:36 AM"
,272,"CONCORD_PLEASANT","Concord Avenue opposite Pleasant Street",42.415432,-71.218764,1.000000,"2",12/30/1899 0:00:00,12/30/1899 0:00:00,"CONCORD_PLEASANT",37.000000,-71.218764,42.415432,0.000000,0.000000,"2 37","8:14:37 AM","8:14:37 AM"
,293,"CONCORD_POTTER_POND","Concord Avenue @ Potter Pond Road",42.412676,-71.212777,1.000000,"2",12/30/1899 0:00:00,12/30/1899 0:00:00,"CONCORD_POTTER_POND",38.000000,-71.212777,42.412676,0.000000,0.000000,"2 38","8:17:38 AM","8:17:38 AM"
,272,"CONCORD_PLEASANT","Concord Avenue opposite Pleasant Street",42.415432,-71.218764,1.000000,"2v",12/30/1899 0:00:00,12/30/1899 0:00:00,"CONCORD_PLEASANT",43.000000,-71.218764,42.415432,0.000000,0.000000,"2v 43","9:20:42 AM","9:20:42 AM"
,272,"CONCORD_PLEASANT","Concord Avenue opposite Pleasant Street",42.415432,-71.218764,1.000000,"2",12/30/1899 0:00:00,12/30/1899 0:00:00,"CONCORD_PLEASANT",43.000000,-71.218764,42.415432,0.000000,0.000000,"2 43","8:20:43 AM","8:20:43 AM"
,293,"CONCORD_POTTER_POND","Concord Avenue @ Potter Pond Road",42.412676,-71.212777,1.000000,"2v",12/30/1899 0:00:00,12/30/1899 0:00:00,"CONCORD_POTTER_POND",42.000000,-71.212777,42.412676,0.000000,0.000000,"2v 42","9:20:41 AM","9:20:41 AM"
,293,"CONCORD_POTTER_POND","Concord Avenue @ Potter Pond Road",42.412676,-71.212777,1.000000,"2",12/30/1899 0:00:00,12/30/1899 0:00:00,"CONCORD_POTTER_POND",42.000000,-71.212777,42.412676,0.000000,0.000000,"2 42","8:20:42 AM","8:20:42 AM"
,293,"CONCORD_METRO_PKWY","Concord @ Metro Pkway",42.411809,-71.211061,1.000000,"2",12/30/1899 0:00:00,12/30/1899 0:00:00,"CONCORD_METRO_PKWY",39.000000,-71.211061,42.411809,0.000000,0.000000,"2 39","8:17:39 AM","8:17:39 AM"
,293,"CONCORD_METRO_PKWY","Concord @ Metro Pkway",42.411809,-71.211061,1.000000,"2v",12/30/1899 0:00:00,12/30/1899 0:00:00,"CONCORD_METRO_PKWY",39.000000,-71.211061,42.411809,0.000000,0.000000,"2v 39","9:17:38 AM","9:17:38 AM"
,293,"CONCORD_METRO_PKWY","Concord @ Metro Pkway",42.411809,-71.211061,1.000000,"2",12/30/1899 0:00:00,12/30/1899 0:00:00,"CONCORD_METRO_PKWY",41.000000,-71.211061,42.411809,0.000000,0.000000,"2 41","8:20:41 AM","8:20:41 AM"
,293,"CONCORD_METRO_PKWY","Concord @ Metro Pkway",42.411809,-71.211061,1.000000,"2v",12/30/1899 0:00:00,12/30/1899 0:00:00,"CONCORD_METRO_PKWY",41.000000,-71.211061,42.411809,0.000000,0.000000,"2v 41","9:19:40 AM","9:19:40 AM"
,0,"AVALON","Avalon at Lexington Hills",42.407980,-71.212394,1.000000,"2",12/30/1899 0:00:00,12/30/1899 0:00:00,"AVALON",40.000000,-71.212394,42.407980,0.000000,0.000000,"2 40","8:19:40 AM","8:19:40 AM"
,273,"CONCORD_BLOSSOM","Concord Avenue @ Blossom Street",42.417111,-71.224214,1.000000,"2",12/30/1899 0:00:00,12/30/1899 0:00:00,"CONCORD_BLOSSOM",44.000000,-71.224214,42.417111,0.000000,0.000000,"2 44","8:20:44 AM","8:20:44 AM"
,274,"CONCORD_APRIL","Concord Avenue @ April Lane",42.418331,-71.230222,1.000000,"2",12/30/1899 0:00:00,12/30/1899 0:00:00,"CONCORD_APRIL",45.000000,-71.230222,42.418331,0.000000,0.000000,"2 45","8:21:45 AM","8:21:45 AM"
,275,"CONCORD_WALTHAM","Concord Avenue @ Waltham Street",42.418284,-71.231724,1.000000,"2",12/30/1899 0:00:00,12/30/1899 0:00:00,"CONCORD_WALTHAM",46.000000,-71.231724,42.418284,0.000000,0.000000,"2 46","8:21:46 AM","8:21:46 AM"
,278,"WALTHAM_CONCORD","Waltham Street @ Concord Avenue",42.418268,-71.231381,1.000000,"2v",12/30/1899 0:00:00,12/30/1899 0:00:00,"WALTHAM_CONCORD",49.000000,-71.231381,42.418268,0.000000,0.000000,"2v 49","9:23:48 AM","9:23:48 AM"
,277,"LEXINGTON","Lexington Ridge (Avalon Apartments)",42.414909,-71.233462,1.000000,"2",12/30/1899 0:00:00,12/30/1899 0:00:00,"LEXINGTON",48.000000,-71.233462,42.414909,0.000000,0.000000,"2 48","8:23:48 AM","8:23:48 AM"
,276,"WALTHAM_LEXINGTON","Waltham Street @ Lexington Ridge Drive",42.414656,-71.232411,1.000000,"2",12/30/1899 0:00:00,12/30/1899 0:00:00,"WALTHAM_LEXINGTON",47.000000,-71.232411,42.414656,0.000000,0.000000,"2 47","8:22:47 AM","8:22:47 AM"
,279,"WALTHAM_PIPER","Waltham Street @ Piper Road",42.420264,-71.231617,1.000000,"2",12/30/1899 0:00:00,12/30/1899 0:00:00,"WALTHAM_PIPER",50.000000,-71.231617,42.420264,0.000000,0.000000,"2 50","8:24:49 AM","8:24:49 AM"
,280,"WALTHAM_BLOSSOMCREST","Waltham Street @ Blossomcrest Road",42.423812,-71.231381,1.000000,"2",12/30/1899 0:00:00,12/30/1899 0:00:00,"WALTHAM_BLOSSOMCREST",51.000000,-71.231381,42.423812,0.000000,0.000000,"2 51","8:24:50 AM","8:24:50 AM"
,281,"WALTHAM_ALLEN","Waltham Street @ Allen Street",42.427566,-71.230877,1.000000,"2",12/30/1899 0:00:00,12/30/1899 0:00:00,"WALTHAM_ALLEN",52.000000,-71.230877,42.427566,0.000000,0.000000,"2 52","8:24:51 AM","8:24:51 AM"
,282,"WALTHAM_BROOKSIDE","Waltham Street @ Brookside Avenue",42.431145,-71.232636,1.000000,"2",12/30/1899 0:00:00,12/30/1899 0:00:00,"WALTHAM_BROOKSIDE",53.000000,-71.232636,42.431145,0.000000,0.000000,"2 53","8:24:52 AM","8:24:52 AM"
,283,"WALTHAM_KENDALL","Waltham Street @ Kendall Road",42.432832,-71.233677,1.000000,"2",12/30/1899 0:00:00,12/30/1899 0:00:00,"WALTHAM_KENDALL",54.000000,-71.233677,42.432832,0.000000,0.000000,"2 54","8:24:53 AM","8:24:53 AM"
,284,"WALTHAM_FARMCREST","Waltham Street @ Farmcrest Avenue",42.434867,-71.234299,1.000000,"2",12/30/1899 0:00:00,12/30/1899 0:00:00,"WALTHAM_FARMCREST",55.000000,-71.234299,42.434867,0.000000,0.000000,"2 55","8:24:54 AM","8:24:54 AM"
,285,"WALTHAM_MARRETT","Waltham Street @ Marrett Road",42.435706,-71.234557,1.000000,"2",12/30/1899 0:00:00,12/30/1899 0:00:00,"WALTHAM_MARRETT",56.000000,-71.234557,42.435706,0.000000,0.000000,"2 56","8:24:55 AM","8:24:55 AM"
,304,"WALTHAM_WACHUSETT","Waltham Street @ Wachusett Dr",42.437907,-71.234943,1.000000,"2",12/30/1899 0:00:00,12/30/1899 0:00:00,"WALTHAM_WACHUSETT",57.000000,-71.234943,42.437907,0.000000,0.000000,"2 57","8:25:56 AM","8:25:56 AM"
,286,"WALTHAM","Waltham Street",42.439269,-71.233452,1.000000,"2",12/30/1899 0:00:00,12/30/1899 0:00:00,"WALTHAM",58.000000,-71.233452,42.439269,0.000000,0.000000,"2 58","8:25:57 AM","8:25:57 AM"
,287,"WALTHAM_WORTHEN2","Waltham Street @ Worthen Road",42.440679,-71.232518,1.000000,"2",12/30/1899 0:00:00,12/30/1899 0:00:00,"WALTHAM_WORTHEN2",59.000000,-71.232518,42.440679,0.000000,0.000000,"2 59","8:25:58 AM","8:25:58 AM"
,288,"WALTHAM_WINTHROP","Waltham Street @ Winthrop Road",42.442967,-71.230083,1.000000,"2",12/30/1899 0:00:00,12/30/1899 0:00:00,"WALTHAM_WINTHROP",60.000000,-71.230083,42.442967,0.000000,0.000000,"2 60","8:26:59 AM","8:26:59 AM"
,289,"WALTHAM_VYNEBROOK","Waltham Street @ Vynebrook Village",42.444827,-71.228827,1.000000,"2",12/30/1899 0:00:00,12/30/1899 0:00:00,"WALTHAM_VYNEBROOK",61.000000,-71.228827,42.444827,0.000000,0.000000,"2 61","8:28:00 AM","8:28:00 AM"
,291,"WALTHAM_VINEBROOK","Waltham Street @ Vine brook Road",42.446308,-71.228044,1.000000,"2",12/30/1899 0:00:00,12/30/1899 0:00:00,"WALTHAM_VINEBROOK",62.000000,-71.228044,42.446308,0.000000,0.000000,"2 62","8:29:01 AM","8:29:01 AM"
,292,"WALTHAM_MASS","Waltham Street @ Massachusetts Avenue",42.447369,-71.227089,1.000000,"2",12/30/1899 0:00:00,12/30/1899 0:00:00,"WALTHAM_MASS",63.000000,-71.227089,42.447369,0.000000,0.000000,"2 63","8:29:02 AM","8:29:02 AM"
,292,"DEPOT","Depot Square",42.448211,-71.228729,1.000000,"2",12/30/1899 0:00:00,12/30/1899 0:00:00,"DEPOT",64.000000,-71.228729,42.448211,0.000000,0.000000,"2 64","8:29:03 AM","8:29:03 AM"
,292,"DEPOT","Depot Square",42.448211,-71.228729,1.000000,"2v",12/30/1899 0:00:00,12/30/1899 0:00:00,"DEPOT",65.000000,-71.228729,42.448211,0.000000,0.000000,"2v 65","9:29:05 AM","9:29:05 AM"
,292,"DEPOT","Depot Square",42.448211,-71.228729,1.000000,"2",12/30/1899 0:00:00,12/30/1899 0:00:00,"DEPOT",1.000000,-71.228729,42.448211,0.000000,0.000000,"2 1","8:00:01 AM","8:00:01 AM"
,292,"DEPOT","Depot Square",42.448211,-71.228729,1.000000,"2v",12/30/1899 0:00:00,12/30/1899 0:00:00,"DEPOT",1.000000,-71.228729,42.448211,0.000000,0.000000,"2v 1","8:26:57 AM","8:26:57 AM"
,1,"DEPOT","Depot Square",42.448211,-71.228729,3.000000,"1",12/30/1899 0:00:00,12/30/1899 0:00:00,"DEPOT",69.000000,-71.228729,42.448211,0.000000,0.000000,"1 69","7:52:09 AM","7:52:09 AM"
,97,"MASS_PLEASANT","Massachusetts Avenue @ Pleasant Street",42.429213,-71.207069,1.000000,"1",12/30/1899 0:00:00,12/30/1899 0:00:00,"MASS_PLEASANT",56.000000,-71.207069,42.429213,0.000000,0.000000,"1 56","7:45:55 AM","7:45:55 AM"
,40,"DEPOT","Depot Square",42.448211,-71.228729,1.000000,"4",12/30/1899 0:00:00,12/30/1899 0:00:00,"DEPOT",71.000000,-71.228729,42.448211,0.000000,0.000000,"4 71","7:29:55 AM","7:29:55 AM"
,34,"ADAMS_HANCOCK","Adams Street @ Hancock Street",42.456544,-71.227519,1.000000,"6",12/30/1899 0:00:00,12/30/1899 0:00:00,"ADAMS_HANCOCK",52.000000,-71.227519,42.456544,0.000000,0.000000,"6 52","8:22:50 AM","8:22:50 AM"
,40,"DEPOT","Depot Square",42.448211,-71.228729,1.000000,"4fg",12/30/1899 0:00:00,12/30/1899 0:00:00,"DEPOT",73.000000,-71.228729,42.448211,71.000000,0.000000,"4fg 73","9:30:13 AM","9:30:13 AM"
,3,"MASS_GRANT","Massachusetts Avenue @ Grant Street",42.446751,-71.225699,1.000000,"5B1",12/30/1899 0:00:00,12/30/1899 0:00:00,"MASS_GRANT",2.000000,-71.225699,42.446751,2.000000,0.000000,"5B1 2","8:30:01 AM","8:30:01 AM"
,39,"DEPOT","Depot Square",42.448211,-71.228729,1.000000,"5B1",12/30/1899 0:00:00,12/30/1899 0:00:00,"DEPOT",1.000000,-71.228729,42.448211,0.000000,0.000000,"5B1 1","9:30:14 AM","9:30:14 AM"
,278,"WALTHAM_CONCORD","Waltham Street @ Concord Avenue",42.418268,-71.231381,1.000000,"2",,,"WALTHAM_CONCORD",49.000000,-71.231381,42.418268,0.000000,0.000000,"2 49","",""
